"","SALE.TYPE","SOLD.DATE","PROPERTY.TYPE","ADDRESS","CITY","STATE","ZIP","PRICE","BEDS","BATHS","LOCATION","SQUARE.FEET","LOT.SIZE","YEAR.BUILT","DAYS.ON.MARKET","X..SQUARE.FEET","HOA.MONTH","URL..SEE.http...www.redfin.com.buy.a.home.comparative.market.analysis.FOR.INFO.ON.PRICING.","SOURCE","MLS.","LATITUDE","LONGITUDE","dist"
"1","PAST SALE",2017-10-13,"Condo/Co-op","1725 17th St NW #503","Washington","DC",20009,219500,0,1,"Old City #2",440,NA,1917,5,499,536,"http://www.redfin.com/DC/Washington/1725-17th-St-NW-20009/unit-503/home/18981537","MRIS","DC10035329",38.9135446,-77.0379321,0.413170993188023
"2","PAST SALE",2017-08-31,"Condo/Co-op","300 M St SW Unit N303","Washington","DC",20024,224900,0,1,"Rla (sw)",463,NA,1967,48,486,421,"http://www.redfin.com/DC/Washington/300-M-St-SW-20024/unit-N303/home/108236268","MRIS","DC9955167",38.8761342,-77.0164878,0.0485816030432221
"3","PAST SALE",2017-09-15,"Condo/Co-op","1441 Rhode Island Ave NW #915","Washington","DC",20005,366500,0,1,"Old City #2",552,NA,2003,33,664,299,"http://www.redfin.com/DC/Washington/1441-Rhode-Island-Ave-NW-20005/unit-915/home/21648156","MRIS","DC10022935",38.9085968,-77.0337573,0.490266475603726
"4","PAST SALE",2017-08-22,"Condo/Co-op","1910 Kalorama Rd NW #302","Washington","DC",20009,372000,0,1,"Kalorama",479,NA,1923,57,777,248,"http://www.redfin.com/DC/Washington/1910-Kalorama-Rd-NW-20009/unit-302/home/45505197","MRIS","DC9935900",38.9190923,-77.0455228,0.558242583563222
"5","PAST SALE",2017-07-31,"Condo/Co-op","350 G St SW Unit N323","Washington","DC",20024,260000,0,1,"Rla (sw)",533,NA,2004,79,488,236,"http://www.redfin.com/DC/Washington/350-G-St-SW-20024/unit-00N323/home/22643487","MRIS","DC9904706",38.8807664,-77.0165581,0.268504387226719
"6","PAST SALE",2017-07-31,"Condo/Co-op","240 M St SW Unit E812","Washington","DC",20024,224000,0,1,"Rla (sw)",463,NA,1967,79,484,405,"http://www.redfin.com/DC/Washington/240-M-St-SW-20024/unit-E812/home/9886497","MRIS","DC9968647",38.8754195,-77.0158124,0.100700742740977
"7","PAST SALE",2017-08-18,"Condo/Co-op","1440 N St NW #215","Washington","DC",20005,239900,0,1,"Old City #2",430,NA,1964,61,558,460,"http://www.redfin.com/DC/Washington/1440-N-St-NW-20005/unit-215/home/9871135","MRIS","DC9980327",38.9070428,-77.0336369,0.410358995866893
"8","PAST SALE",NA,"Condo/Co-op","3895 Rodman St NW Apt C75","Washington","DC",20016,227500,0,1,"",506,NA,1942,NA,450,NA,"http://www.redfin.com/DC/Washington/3895-Rodman-St-NW-20016/unit-C75/home/9968403","","",38.939353,-77.077251,0.622985241634706
"9","PAST SALE",2017-08-11,"Condo/Co-op","1931 17th St NW #103","Washington","DC",20009,275000,0,1,"U Street",405,NA,1982,68,679,230,"http://www.redfin.com/DC/Washington/1931-17th-St-NW-20009/unit-103/home/9865105","MRIS","DC9978780",38.9164879,-77.0380555,0.49025616511981
"10","PAST SALE",2017-08-15,"Condo/Co-op","1954 Columbia Rd NW #109","Washington","DC",20009,180000,0,1,"Kalorama",280,NA,1927,64,643,202,"http://www.redfin.com/DC/Washington/1954-Columbia-Rd-NW-20009/unit-109/home/9999325","MRIS","DC9981485",38.9177942,-77.0452169,0.467754750098654
"11","PAST SALE",NA,"Condo/Co-op","4201 Cathedral Ave NW Apt 1218W","Washington","DC",20016,213500,0,1,"",555,NA,1960,NA,385,NA,"http://www.redfin.com/DC/Washington/4201-Cathedral-Ave-NW-20016/unit-1218W/home/9952839","","",38.9311324,-77.0837882,1.20364000572741
"12","PAST SALE",NA,"Condo/Co-op","1910 Kalorama Rd NW Apt 502","Washington","DC",20009,369000,0,1,"",479,NA,1923,NA,770,NA,"http://www.redfin.com/DC/Washington/1910-Kalorama-Rd-NW-20009/unit-502/home/45505209","","",38.9190923,-77.0455228,0.558242583563222
"13","PAST SALE",2017-08-18,"Condo/Co-op","1316 New Hampshire Ave NW #706","Washington","DC",20036,294900,0,1,"Central",468,NA,1918,61,630,193,"http://www.redfin.com/DC/Washington/1316-New-Hampshire-Ave-NW-20036/unit-706/home/9057996","MRIS","DC9978913",38.9078191,-77.0456381,0.226069743267919
"14","PAST SALE",2017-08-18,"Condo/Co-op","522 21st St NW #806","Washington","DC",20006,230000,0,1,"Foggy Bottom",474,NA,1989,61,485,465,"http://www.redfin.com/DC/Washington/522-21st-St-NW-20006/unit-806/home/10346750","MRIS","DC10004409",38.8967406,-77.0469994,0.360231318403347
"15","PAST SALE",2017-08-16,"Condo/Co-op","950 25th St NW Unit 401-N","Washington","DC",20037,160000,0,1,"Foggy Bottom",310,NA,1966,63,516,692,"http://www.redfin.com/DC/Washington/950-25th-St-NW-20037/unit-401-N/home/142724649","MRIS","DC10006421",38.901974,-77.0537004,0.17988162892486
"16","PAST SALE",2017-08-09,"Condo/Co-op","2939 Van Ness St NW #810","Washington","DC",20008,226000,0,1,"Van Ness",447,NA,1964,70,506,425,"http://www.redfin.com/DC/Washington/2939-Van-Ness-St-NW-20008/unit-810/home/9982587","MRIS","DC9954581",38.9443887,-77.0601806,0.279965791973978
"17","PAST SALE",2017-08-11,"Condo/Co-op","950 25th St NW Unit 304-S","Washington","DC",20037,193000,0,1,"Foggy Bottom",445,NA,1966,68,434,731,"http://www.redfin.com/DC/Washington/950-25th-St-NW-20037/unit-304-S/home/88621226","MRIS","DC10012591",38.901974,-77.0537004,0.17988162892486
"18","PAST SALE",2017-08-18,"Condo/Co-op","1301 20th St NW #801","Washington","DC",20036,255000,0,1,"Dupont",450,NA,1973,61,567,484,"http://www.redfin.com/DC/Washington/1301-20th-St-NW-20036/unit-801/home/9060346","MRIS","DC9978038",38.9075853,-77.0445591,0.239415530782761
"19","PAST SALE",2017-07-28,"Condo/Co-op","1801 Clydesdale Pl NW #621","Washington","DC",20009,185000,0,1,"Mount Pleasant",488,NA,1950,82,379,357,"http://www.redfin.com/DC/Washington/1801-Clydesdale-Pl-NW-20009/unit-621/home/39591905","MRIS","DC9979196",38.9262558,-77.0434453,0.534219067275647
"20","PAST SALE",2017-08-25,"Condo/Co-op","3217 Wisconsin Ave NW Unit 7D","Washington","DC",20016,227500,0,1,"Cleveland Park",400,NA,1988,54,569,409,"http://www.redfin.com/DC/Washington/3217-Wisconsin-Ave-NW-20016/unit-7D/home/9973748","MRIS","DC10003538",38.9331884,-77.0721466,0.743616431678294
"21","PAST SALE",2017-07-25,"Condo/Co-op","3245 K St NW Unit S50","Washington","DC",20007,68000,0,NA,"Georgetown",NA,NA,1980,85,NA,24,"http://www.redfin.com/DC/Washington/3245-K-St-NW-20007/unit-S50/home/9923605","MRIS","DC9946613",38.9032404,-77.0643063,0.604729017051435
"22","PAST SALE",2017-08-11,"Condo/Co-op","777 7th St NW #1001","Washington","DC",20001,347000,0,1,"Central",615,NA,2005,68,564,452,"http://www.redfin.com/DC/Washington/777-7th-St-NW-20001/unit-1001/home/10193267","MRIS","DC10030463",38.899494,-77.0217858,0.0586383001329145
"23","PAST SALE",2017-07-28,"Condo/Co-op","1311 Delaware Ave SW Unit S727","Washington","DC",20024,170000,0,1,"Rla (sw)",470,NA,1962,82,362,534,"http://www.redfin.com/DC/Washington/1311-Delaware-Ave-SW-20024/unit-S-727/home/79018775","MRIS","DC9978457",38.8739553,-77.0155098,0.202976147902019
"24","PAST SALE",2017-08-07,"Condo/Co-op","1391 Pennsylvania Ave SE #354","Washington","DC",20003,260000,0,1,"Old City #1",451,NA,2007,72,576,259,"http://www.redfin.com/DC/Washington/1391-Pennsylvania-Ave-SE-20003/unit-354/home/12531234","MRIS","DC9897710",38.879962,-76.9870802,0.123316470244093
"25","PAST SALE",2017-10-02,"Condo/Co-op","1250 4th St SW Unit W112","Washington","DC",20024,245000,0,1,"Waterfront",484,NA,1967,16,506,421,"http://www.redfin.com/DC/Washington/1250-4th-St-SW-20024/unit-W112/home/9885978","MRIS","DC9971905",38.8751976,-77.0172765,0.123875203595128
"26","PAST SALE",2017-10-11,"Condo/Co-op","1311 Delaware Ave SW Unit S830","Washington","DC",20024,139900,0,1,"Sw Waterfront",450,NA,1962,7,311,534,"http://www.redfin.com/DC/Washington/1311-Delaware-Ave-SW-20024/unit-S830/home/143092696","MRIS","DC10023093",38.8739553,-77.0155098,0.202976147902019
"27","PAST SALE",2017-10-04,"Condo/Co-op","510 N St SW Unit N218","Washington","DC",20024,180000,0,1,"Harbour Square",543,NA,1965,14,331,665,"http://www.redfin.com/DC/Washington/510-N-St-SW-20024/unit-N218/home/136141079","MRIS","DC9991157",38.8742758,-77.0187198,0.218804952762961
"28","PAST SALE",2017-10-06,"Condo/Co-op","2800 Wisconsin Ave NW #510","Washington","DC",20007,194000,0,1,"Observatory Circle",466,NA,1964,12,416,438,"http://www.redfin.com/DC/Washington/2800-Wisconsin-Ave-NW-20007/unit-510/home/9974285","MRIS","DC10018577",38.9264399,-77.0735292,1.03236462573907
"29","PAST SALE",2017-10-09,"Condo/Co-op","1300 N St NW #120","Washington","DC",20005,305000,0,1,"Logan Circle",408,NA,2004,9,748,325,"http://www.redfin.com/DC/Washington/1300-N-St-NW-20005/unit-120/home/10341656","MRIS","DC9978090",38.9069228,-77.0300517,0.423919367429329
"30","PAST SALE",NA,"Condo/Co-op","922 24th St NW Apt 712","Washington","DC",20037,218000,0,1,"",465,NA,1962,NA,469,NA,"http://www.redfin.com/DC/Washington/922-24th-St-NW-20037/unit-712/home/9044473","","",38.9014794,-77.0516208,0.062882944718985
"31","PAST SALE",2017-10-13,"Condo/Co-op","1441 Rhode Island Ave NW #914","Washington","DC",20005,373000,0,1,"Logan",552,NA,2003,5,676,299,"http://www.redfin.com/DC/Washington/1441-Rhode-Island-Ave-NW-20005/unit-914/home/21648157","MRIS","DC10049610",38.9085968,-77.0337574,0.490263447554004
"32","PAST SALE",2017-10-16,"Condo/Co-op","1000 New Jersey Ave SE #625","Washington","DC",20003,260000,0,1,"Navy Yard",562,NA,2006,2,463,829,"http://www.redfin.com/DC/Washington/1000-New-Jersey-Ave-SE-20003/unit-625/home/12385845","MRIS","DC10078062",38.8780119,-77.0042672,0.099553823177042
"33","PAST SALE",2017-09-29,"Condo/Co-op","2201 L St NW #117","Washington","DC",20037,295000,0,1,"Central",500,NA,1967,19,590,400,"http://www.redfin.com/DC/Washington/2201-L-St-NW-20037/unit-117/home/9049775","MRIS","DC10011358",38.9040361,-77.0492921,0.209180805250076
"34","PAST SALE",2017-10-06,"Condo/Co-op","305 C St NE #106","Washington","DC",20002,315000,0,1,"Capitol Hill",471,NA,1959,12,669,351,"http://www.redfin.com/DC/Washington/305-C-St-NE-20002/unit-106/home/9893515","MRIS","DC10015825",38.8933707,-77.0017196,0.432921306324634
"35","PAST SALE",2017-07-21,"Condo/Co-op","1300 N St NW #408","Washington","DC",20005,330000,0,1,"Logan Circle",519,NA,2004,89,636,320,"http://www.redfin.com/DC/Washington/1300-N-St-NW-20005/unit-408/home/10341730","MRIS","DC9961219",38.9069228,-77.0300516,0.423920879926389
"36","PAST SALE",2017-08-14,"Condo/Co-op","1000 New Jersey Ave SE #825","Washington","DC",20003,242500,0,1,"Old City #1",570,NA,2006,65,425,371,"http://www.redfin.com/DC/Washington/1000-New-Jersey-Ave-SE-20003/unit-825/home/12434265","MRIS","DC9982745",38.8780119,-77.0042672,0.099553823177042
"37","PAST SALE",2017-08-11,"Condo/Co-op","2125 14th St NW #625","Washington","DC",20009,390000,0,1,"14th Street/logan",529,NA,2007,68,737,372,"http://www.redfin.com/DC/Washington/2125-14th-St-NW-20009/unit-625/home/12533848","MRIS","DC9944795",38.9186299,-77.0315189,0.178214367939116
"38","PAST SALE",2017-08-17,"Condo/Co-op","3101 Sherman Ave NW #102","Washington","DC",20010,240000,0,1,"Columbia Heights",NA,NA,2017,62,NA,250,"http://www.redfin.com/DC/Washington/3101-Sherman-Ave-NW-20010/unit-102/home/113672600","MRIS","DC9985102",38.9290059,-77.0259519,0.377109660585634
"39","PAST SALE",2017-08-29,"Condo/Co-op","1300 Massachusetts Ave NW #403","Washington","DC",20005,215000,0,1,"Central",NA,NA,1890,50,NA,395,"http://www.redfin.com/DC/Washington/1300-Massachusetts-Ave-NW-20005/unit-403/home/21517194","MRIS","DC10020720",38.9046597,-77.0300524,0.277181932008628
"40","PAST SALE",2017-08-11,"Condo/Co-op","1420 N St NW #914","Washington","DC",20005,238700,0,1,"Old City #2",398,NA,1964,68,600,382,"http://www.redfin.com/DC/Washington/1420-N-St-NW-20005/unit-914/home/9870744","MRIS","DC9991909",38.9070896,-77.0329897,0.42019631275238
"41","PAST SALE",NA,"Condo/Co-op","2939 Van Ness St NW Apt 336","Washington","DC",20008,200000,0,1,"",461,NA,1964,NA,434,NA,"http://www.redfin.com/DC/Washington/2939-Van-Ness-St-NW-20008/unit-336/home/9983005","","",38.9443887,-77.0601806,0.279965791973978
"42","PAST SALE",2017-07-31,"Condo/Co-op","4201 Cathedral Ave NW Unit 918W","Washington","DC",20016,218000,0,1,"Wesley Heights",555,NA,1960,79,393,478,"http://www.redfin.com/DC/Washington/4201-Cathedral-Ave-NW-20016/unit-918/home/9952653","MRIS","DC9982014",38.9311324,-77.0837882,1.20364000572741
"43","PAST SALE",2017-08-18,"Condo/Co-op","1740 18th St NW Unit T3","Washington","DC",20009,257000,0,1,"Dupont Circle",442,NA,1947,61,581,183,"http://www.redfin.com/DC/Washington/1740-18th-St-NW-20009/unit-T3/home/11744683","MRIS","DC9997942",38.9137624,-77.0420183,0.244121881646735
"44","PAST SALE",2017-08-21,"Condo/Co-op","555 Massachusetts Ave NW #314","Washington","DC",20001,289000,0,1,"Old City #2",454,NA,2005,58,637,261,"http://www.redfin.com/DC/Washington/555-Massachusetts-Ave-NW-20001/unit-314/home/10347819","MRIS","DC9969343",38.9017582,-77.0194236,0.152860970332694
"45","PAST SALE",2017-09-29,"Condo/Co-op","730 24th St NW #416","Washington","DC",20037,230000,0,1,"Foggy Bottom",550,NA,1961,19,418,534,"http://www.redfin.com/DC/Washington/730-24th-St-NW-20037/unit-416/home/143309157","MRIS","DC10033043",38.8991084,-77.0517335,0.156638046207995
"46","PAST SALE",2017-10-02,"Condo/Co-op","522 21st St NW #507","Washington","DC",20006,230000,0,1,"Foggy Bottom",438,NA,1989,16,525,487,"http://www.redfin.com/DC/Washington/522-21st-St-NW-20006/unit-507/home/9055178","MRIS","DC10039832",38.8967406,-77.0469994,0.360231318403347
"47","PAST SALE",2017-10-06,"Condo/Co-op","730 24th St NW #417","Washington","DC",20037,240000,0,1,"Foggy Bottom",520,NA,1961,12,462,534,"http://www.redfin.com/DC/Washington/730-24th-St-NW-20037/unit-417/home/12278377","MRIS","DC10041434",38.8991084,-77.0517335,0.156638046207995
"48","PAST SALE",2017-08-21,"Condo/Co-op","3760 39th St NW Unit C141","Washington","DC",20016,230000,0,1,"Cleveland Park",506,NA,1942,58,455,255,"http://www.redfin.com/DC/Washington/3760-39th-St-NW-20016/unit-C141/home/9963512","MRIS","DC9973565",38.9387903,-77.0782117,0.654094051330961
"49","PAST SALE",2017-08-30,"Condo/Co-op","1801 Clydesdale Pl NW #617","Washington","DC",20009,190000,0,1,"Adams Morgan",474,NA,1950,49,401,352,"http://www.redfin.com/DC/Washington/1801-Clydesdale-Pl-NW-20009/unit-617/home/142963124","MRIS","DC10011388",38.9262558,-77.0434453,0.534219067275647
"50","PAST SALE",2017-08-31,"Condo/Co-op","2720 Wisconsin Ave NW #703","Washington","DC",20007,195000,0,1,"Observatory Circle",450,NA,1940,48,433,355,"http://www.redfin.com/DC/Washington/2720-Wisconsin-Ave-NW-20007/unit-703/home/141743987","MRIS","DC10001749",38.925743,-77.073657,1.06906636620764
"51","PAST SALE",2017-09-06,"Condo/Co-op","1901 Wyoming Ave NW #57","Washington","DC",20009,260000,0,1,"Kalorama",475,NA,1917,42,547,403,"http://www.redfin.com/DC/Washington/1901-Wyoming-Ave-NW-20009/unit-57/home/105558163","MRIS","DC10004594",38.9185112,-77.0454941,0.518028075220769
"52","PAST SALE",2017-09-11,"Condo/Co-op","955 26th St NW Unit P33","Washington","DC",20037,40000,0,1,"Foggy Bottom",NA,NA,1985,37,NA,61,"http://www.redfin.com/DC/Washington/955-26th-St-NW-20037/unit-P33/home/9042851","MRIS","DC9924472",38.9022373,-77.0544523,0.224059142116342
"53","PAST SALE",2017-09-11,"Condo/Co-op","1210 R St NW Unit P-84","Washington","DC",20009,50000,0,NA,"Old City #2",NA,NA,2006,37,NA,NA,"http://www.redfin.com/DC/Washington/1210-R-St-NW-20009/unit-P-84/home/143796275","MRIS","DC10054100",38.9123621,-77.0285638,0.320607645969541
"54","PAST SALE",2017-09-09,"Condo/Co-op","2141 I St NW #407","Washington","DC",20037,195000,0,1,"Foggy Bottom",322,NA,1974,39,606,298,"http://www.redfin.com/DC/Washington/2141-I-St-NW-20037/unit-407/home/9054506","MRIS","DC10039702",38.9010038,-77.048227,0.124136506181783
"55","PAST SALE",2017-09-13,"Condo/Co-op","929 Florida Ave NW #4006","Washington","DC",20001,321500,0,1,"Shaw",385,NA,2006,35,835,199,"http://www.redfin.com/DC/Washington/929-Florida-Ave-NW-20001/unit-4006/home/22057665","MRIS","DC10004936",38.918672,-77.0242293,0.280450831412675
"56","PAST SALE",2017-09-12,"Condo/Co-op","1301 20th St NW #517","Washington","DC",20036,282000,0,1,"Central",502,NA,1973,36,562,527,"http://www.redfin.com/DC/Washington/1301-20th-St-NW-20036/unit-517/home/9060215","MRIS","DC10024265",38.9075853,-77.0445591,0.239415530782761
"57","PAST SALE",NA,"Condo/Co-op","2201 L St NW Apt 619","Washington","DC",20037,288000,0,1,"",510,NA,1967,NA,565,NA,"http://www.redfin.com/DC/Washington/2201-L-St-NW-20037/unit-619/home/9050049","","",38.9040361,-77.0492921,0.209180805250076
"58","PAST SALE",NA,"Condo/Co-op","300 M St SW Apt 303","Washington","DC",20024,224900,0,1,"",463,NA,1967,NA,486,NA,"http://www.redfin.com/DC/Washington/300-M-St-SW-20024/unit-303/home/9886624","","",38.8761342,-77.0164878,0.0485816030432221
"59","PAST SALE",NA,"Condo/Co-op","1500 Pennsylvania Ave SE Apt 302","Washington","DC",20003,117500,0,1,"",465,NA,2016,NA,253,NA,"http://www.redfin.com/DC/Washington/1500-Pennsylvania-Ave-SE-20003/unit-302/home/113745695","","",38.879821,-76.983278,0.156255425654519
"60","PAST SALE",2017-07-24,"Condo/Co-op","2201 L St NW #712","Washington","DC",20037,289900,0,1,"Central",475,NA,1974,86,610,378,"http://www.redfin.com/DC/Washington/2201-L-St-NW-20037/unit-712/home/9049671","MRIS","DC9997088",38.9040361,-77.0492921,0.209180805250076
"61","PAST SALE",NA,"Condo/Co-op","1133 14th St NW Apt 1209","Washington","DC",20005,399990,0,1,"",615,NA,2006,NA,650,NA,"http://www.redfin.com/DC/Washington/1133-14th-St-NW-20005/unit-1209/home/22675726","","",38.9047062,-77.0315774,0.256201416978582
"62","PAST SALE",2017-08-28,"Condo/Co-op","1414 Belmont St NW #203","Washington","DC",20009,329000,0,1,"14th St / U-st Corridor",431,NA,2009,51,763,267,"http://www.redfin.com/DC/Washington/1414-Belmont-St-NW-20009/unit-203/home/17489144","MRIS","DC9998066",38.9205038,-77.0321158,0.296447683973911
"63","PAST SALE",2017-07-31,"Condo/Co-op","422 Butternut St NW #206","Washington","DC",20012,259900,0,1,"Brightwood",581,NA,1931,79,447,206,"http://www.redfin.com/DC/Washington/422-Butternut-St-NW-20012/unit-206/home/39900537","MRIS","DC9963800",38.9732876,-77.018929,0.160374442331335
"64","PAST SALE",2017-07-21,"Condo/Co-op","2510 Virginia Ave NW Unit 309-N","Washington","DC",20037,280000,0,1,"Watergate",640,NA,1971,89,438,597,"http://www.redfin.com/DC/Washington/2510-Virginia-Ave-NW-20037/unit-309-N/home/45361101","MRIS","DC9962699",38.8987817,-77.0541995,0.257685095663457
"65","PAST SALE",2017-07-28,"Condo/Co-op","1425 4th St SW Unit A102","Washington","DC",20024,220000,0,1,"Rla (sw)",447,NA,1965,82,492,556,"http://www.redfin.com/DC/Washington/1425-4th-St-SW-20024/unit-A102/home/9882491","MRIS","DC9971709",38.8727449,-77.0187374,0.31088328933036
"66","PAST SALE",2017-08-18,"Condo/Co-op","430 M St SW Unit N-210","Washington","DC",20024,195000,0,1,"Waterfront",NA,NA,1966,61,NA,737,"http://www.redfin.com/DC/Washington/430-M-St-SW-20024/unit-N-210/home/143321084","MRIS","DC10034417",38.8759981,-77.0185543,0.133631379632701
"67","PAST SALE",NA,"Condo/Co-op","350 G St SW Apt N323","Washington","DC",20024,260000,0,1,"",533,NA,2004,NA,488,NA,"http://www.redfin.com/DC/Washington/350-G-St-SW-20024/unit-N323/home/10193833","","",38.8807664,-77.0165581,0.268504387226719
"68","PAST SALE",2017-08-28,"Condo/Co-op","940 25th St NW Unit 607-S","Washington","DC",20037,207000,0,1,"Foggy Bottom",450,NA,1957,51,460,729,"http://www.redfin.com/DC/Washington/940-25th-St-NW-20037/unit-607-S/home/108993389","MRIS","DC9762693",38.901712,-77.05372,0.176143945014371
"69","PAST SALE",NA,"Condo/Co-op","922 24th St NW Apt 801","Washington","DC",20037,220000,0,1,"",409,NA,1962,NA,538,NA,"http://www.redfin.com/DC/Washington/922-24th-St-NW-20037/unit-801/home/9044080","","",38.9014794,-77.0516208,0.062882944718985
"70","PAST SALE",2017-09-29,"Condo/Co-op","1330 New Hampshire Ave NW #521","Washington","DC",20036,274000,0,1,"Central",504,NA,1963,19,544,435,"http://www.redfin.com/DC/Washington/1330-New-Hampshire-Ave-NW-20036/unit-521/home/9057027","MRIS","DC10023167",38.90816,-77.0452812,0.200022792096249
"71","PAST SALE",NA,"Condo/Co-op","800 4th St SW Apt N703","Washington","DC",20024,271500,0,1,"",486,NA,1959,NA,559,NA,"http://www.redfin.com/DC/Washington/800-4th-St-SW-20024/unit-N703/home/12531805","","",38.8802745,-77.0171251,0.24275547649679
"72","PAST SALE",2017-09-15,"Condo/Co-op","3101 New Mexico Ave NW #803","Washington","DC",20016,222000,0,1,"Wesley Heights",585,NA,1979,33,379,444,"http://www.redfin.com/DC/Washington/3101-New-Mexico-Ave-NW-20016/unit-803/home/9954725","MRIS","DC9957085",38.9325798,-77.0848915,1.11972210313895
"73","PAST SALE",NA,"Condo/Co-op","4600 Connecticut Ave NW Apt 616","Washington","DC",20008,220000,0,1,"",496,NA,1948,NA,444,NA,"http://www.redfin.com/DC/Washington/4600-Connecticut-Ave-NW-20008/unit-616/home/9976499","","",38.9502054,-77.0675305,0.4116812217105
"74","PAST SALE",2017-08-07,"Condo/Co-op","1701 16th St NW #307","Washington","DC",20009,200000,0,1,"Dupont Circle",338,NA,1920,72,592,293,"http://www.redfin.com/DC/Washington/1701-16th-St-NW-20009/unit-307/home/40105686","MRIS","DC9969894",38.9130203,-77.036064,0.470198635361924
"75","PAST SALE",2017-08-30,"Condo/Co-op","2854 Connecticut Ave NW #41","Washington","DC",20008,220000,0,1,"Woodley Park",NA,NA,1938,49,NA,263,"http://www.redfin.com/DC/Washington/2854-Connecticut-Ave-NW-20008/unit-41/home/45115220","MRIS","DC9977705",38.9279439,-77.0544712,0.150280455122338
"76","PAST SALE",2017-08-30,"Condo/Co-op","2201 L St NW #619","Washington","DC",20037,288000,0,1,"Central",510,NA,1967,49,565,400,"http://www.redfin.com/DC/Washington/2201-L-St-NW-20037/unit-619/home/143027945","MRIS","DC10014145",38.9040361,-77.0492921,0.209180805250076
"77","PAST SALE",2017-09-07,"Condo/Co-op","2039 New Hampshire Ave NW #209","Washington","DC",20009,230000,0,1,"Old City #2",501,NA,1909,41,459,392,"http://www.redfin.com/DC/Washington/2039-New-Hampshire-Ave-NW-20009/unit-209/home/40126415","MRIS","DC10030354",38.9177842,-77.0353326,0.346912593725297
"78","PAST SALE",2017-09-25,"Condo/Co-op","1260 21st St NW #215","Washington","DC",20036,260000,0,1,"Central",427,NA,1966,23,609,569,"http://www.redfin.com/DC/Washington/1260-21st-St-NW-20036/unit-215/home/9052760","MRIS","DC9985443",38.906725,-77.0468886,0.316865713252346
"79","PAST SALE",2017-09-26,"Condo/Co-op","2829 Connecticut Ave NW #508","Washington","DC",20008,228000,0,1,"Woodley Park/garfield",462,NA,1963,22,494,407,"http://www.redfin.com/DC/Washington/2829-Connecticut-Ave-NW-20008/unit-508/home/9989214","MRIS","DC10051123",38.927532,-77.0536371,0.110471895154101
"80","PAST SALE",NA,"Condo/Co-op","3000 7th St NE Apt 120","Washington","DC",20017,170700,0,1,"",363,NA,1967,NA,470,NA,"http://www.redfin.com/DC/Washington/3000-7th-St-NE-20017/unit-120/home/10076571","","",38.9278553,-76.9963847,0.425735077966208
"81","PAST SALE",2017-09-13,"Condo/Co-op","4000 Tunlaw Rd NW #804","Washington","DC",20007,220000,0,1,"Glover Park",440,NA,1960,35,500,370,"http://www.redfin.com/DC/Washington/4000-Tunlaw-Rd-NW-20007/unit-804/home/9959575","MRIS","DC10027625",38.9253425,-77.0803709,1.3750187256748
"82","PAST SALE",2017-09-21,"Condo/Co-op","5406 Connecticut Ave NW #407","Washington","DC",20015,202500,0,1,"Chevy Chase",552,NA,1963,27,367,449,"http://www.redfin.com/DC/Washington/5406-Connecticut-Ave-NW-20015/unit-407/home/9970082","MRIS","DC10034405",38.9614906,-77.073956,0.634082059066949
"83","PAST SALE",2017-09-01,"Condo/Co-op","1756 Corcoran St NW Unit 1/2B","Washington","DC",20009,208000,0,1,"Dupont Circle",290,NA,1885,47,717,364,"http://www.redfin.com/DC/Washington/1756-Corcoran-St-NW-20009/unit-1-2B/home/124325675","MRIS","DC9978965",38.9118646,-77.0404795,0.244676916903402
"84","PAST SALE",2017-08-29,"Condo/Co-op","1701 16th St NW #706","Washington","DC",20009,239900,0,1,"Old City #2",340,NA,1920,50,706,506,"http://www.redfin.com/DC/Washington/1701-16th-St-NW-20009/unit-706/home/12446261","MRIS","DC10003311",38.9130203,-77.036064,0.470198635361924
"85","PAST SALE",2017-09-07,"Condo/Co-op","1601 18th St NW #518","Washington","DC",20009,298970,0,1,"Dupont Circle",410,NA,1962,41,729,434,"http://www.redfin.com/DC/Washington/1601-18th-St-NW-20009/unit-518/home/9860921","MRIS","DC9927229",38.9113829,-77.0412216,0.199380436051599
"86","PAST SALE",2017-09-29,"Condo/Co-op","2030 F St NW #1004","Washington","DC",20006,254000,0,1,"Foggy Bottom",505,NA,1960,19,503,548,"http://www.redfin.com/DC/Washington/2030-F-St-NW-20006/unit-1004/home/9058675","MRIS","DC10043845",38.8972032,-77.0463373,0.354944781557391
"87","PAST SALE",2017-09-15,"Condo/Co-op","929 Florida Ave NW #5006","Washington","DC",20001,293000,0,1,"Shaw",385,NA,2006,33,761,189,"http://www.redfin.com/DC/Washington/929-Florida-Ave-NW-20001/unit-5006/home/21644100","MRIS","DC9942813",38.918672,-77.0242293,0.280450831412675
"88","PAST SALE",2017-10-10,"Condo/Co-op","2141 I St NW #613","Washington","DC",20037,225000,0,1,"Foggy Bottom",376,NA,1974,8,598,349,"http://www.redfin.com/DC/Washington/2141-I-St-NW-20037/unit-613/home/9054699","MRIS","DC10046271",38.9010038,-77.048227,0.124136506181783
"89","PAST SALE",2017-10-02,"Condo/Co-op","522 21st St NW #812","Washington","DC",20006,243000,0,1,"Foggy Bottom",562,NA,1989,16,432,552,"http://www.redfin.com/DC/Washington/522-21st-St-NW-20006/unit-812/home/9055350","MRIS","DC10008776",38.8967406,-77.0469994,0.360231318403347
"90","PAST SALE",2017-07-21,"Condo/Co-op","1121 24th St NW #201","Washington","DC",20037,279900,0,1,"Central",390,NA,1940,89,718,178,"http://www.redfin.com/DC/Washington/1121-24th-St-NW-20037/unit-201/home/22655483","MRIS","DC9975650",38.9044009,-77.0512725,0.227242168925928
"91","PAST SALE",2017-08-04,"Condo/Co-op","300 M St SW Unit N102","Washington","DC",20024,220000,0,1,"Rla (sw)",461,NA,1967,75,477,411,"http://www.redfin.com/DC/Washington/300-M-St-SW-20024/unit-N102/home/9886562","MRIS","DC9971569",38.8761342,-77.0164878,0.0485816030432221
"92","PAST SALE",2017-07-31,"Condo/Co-op","2801 New Mexico Ave NW Unit C-20","Washington","DC",20007,28000,0,0.5,"Observatory Circle",150,NA,1968,79,187,50,"http://www.redfin.com/DC/Washington/2801-New-Mexico-Ave-NW-20007/unit-C-20/home/143060261","MRIS","DC10019887",38.9267359,-77.0805026,1.33196049976155
"93","PAST SALE",2017-07-25,"Condo/Co-op","5315 Connecticut Ave NW #509","Washington","DC",20015,205000,0,1,"Chevy Chase",326,NA,1955,85,629,249,"http://www.redfin.com/DC/Washington/5315-Connecticut-Ave-NW-20015/unit-509/home/9971392","MRIS","DC9973044",38.9599573,-77.0723167,0.723311607509089
"94","PAST SALE",2017-08-31,"Condo/Co-op","1311 Delaware Ave SW Unit S-748","Washington","DC",20024,149900,0,1,"Southwest Waterfront",450,NA,1962,48,333,534,"http://www.redfin.com/DC/Washington/1311-Delaware-Ave-SW-20024/unit-S-748/home/134266150","MRIS","DC9989379",38.8739553,-77.0155098,0.202976147902019
"95","PAST SALE",2017-09-20,"Condo/Co-op","800 4th St SW Unit N-703","Washington","DC",20024,271500,0,1,"Sw Waterfront",486,NA,1959,28,559,324,"http://www.redfin.com/DC/Washington/800-4th-St-SW-20024/unit-N-703/home/143092562","MRIS","DC10023073",38.8802745,-77.017125,0.242754503196039
"96","PAST SALE",2017-09-27,"Condo/Co-op","631 D St NW #638","Washington","DC",20004,335000,0,1,"Penn Quarter",540,NA,2004,21,620,423,"http://www.redfin.com/DC/Washington/631-D-St-NW-20004/unit-638/home/10342615","MRIS","DC10015818",38.8953272,-77.0210685,0.0983097763316582
"97","PAST SALE",2017-09-26,"Condo/Co-op","649 C St SE #105","Washington","DC",20003,341500,0,1,"Capitol Hill",473,NA,1986,22,722,238,"http://www.redfin.com/DC/Washington/649-C-St-SE-20003/unit-105/home/9900274","MRIS","DC9950483",38.8857054,-76.9968702,0.115607808014185
"98","PAST SALE",2017-09-01,"Condo/Co-op","520 N St SW Unit S227","Washington","DC",20024,175000,0,1,"Harbour Square",561,NA,1965,47,312,622,"http://www.redfin.com/DC/Washington/520-N-St-SW-20024/unit-S-227/home/79056227","MRIS","DC9991699",38.8743973,-77.0187172,0.212010877201364
"99","PAST SALE",2017-09-11,"Condo/Co-op","1701 16th St NW #204","Washington","DC",20009,179888,0,1,"Dupont Circle",320,NA,1920,37,562,439,"http://www.redfin.com/DC/Washington/1701-16th-St-NW-20009/unit-204/home/12075525","MRIS","DC9896399",38.9130203,-77.036064,0.470198635361924
"100","PAST SALE",2017-09-01,"Condo/Co-op","530 N SW Unit S310","Washington","DC",20024,210000,0,1,"Harbour Square",564,NA,1965,47,372,596,"http://www.redfin.com/DC/Washington/530-N-St-SW-20024/unit-S310/home/114026415","MRIS","DC9959225",38.8746524,-77.0191624,0.21477586516307
"101","PAST SALE",2017-08-31,"Condo/Co-op","350 G St SW Unit N-403","Washington","DC",20024,260000,0,1,"Rla (sw)",499,NA,2004,48,521,224,"http://www.redfin.com/DC/Washington/350-G-St-SW-20024/unit-N403/home/10193845","MRIS","DC9940362",38.8807663,-77.0165581,0.268511182132869
"102","PAST SALE",2017-09-22,"Condo/Co-op","430 Irving St NW #203","Washington","DC",20010,175000,0,1,"Columbia Heights",252,NA,1942,26,694,151,"http://www.redfin.com/DC/Washington/430-Irving-St-NW-20010/unit-203/home/12530181","MRIS","DC10026305",38.9292095,-77.0188531,0.640163369398084
"103","PAST SALE",NA,"Condo/Co-op","2337 Champlain St NW Unit 9","Washington","DC",20009,114200,0,1,"",391,NA,2016,NA,292,NA,"http://www.redfin.com/DC/Washington/2337-Champlain-St-NW-20009/unit-9/home/113745916","","",38.921507,-77.040964,0.653731905270627
"104","PAST SALE",2017-09-18,"Condo/Co-op","1440 N St NW #410","Washington","DC",20005,215000,0,1,"Old City #2",421,NA,1964,30,511,420,"http://www.redfin.com/DC/Washington/1440-N-St-NW-20005/unit-410/home/9871066","MRIS","DC10070986",38.9070428,-77.0336369,0.410358995866893
"105","PAST SALE",2017-09-22,"Condo/Co-op","1718 P St NW Unit L1","Washington","DC",20036,270000,0,1,"Dupont",436,NA,1968,26,619,478,"http://www.redfin.com/DC/Washington/1718-P-St-NW-20036/unit-L1/home/9862455","MRIS","DC10028371",38.9093943,-77.0392914,0.32249327489336
"106","PAST SALE",NA,"Condo/Co-op","1301 20th St NW Apt 116","Washington","DC",20036,200000,0,1,"",467,NA,1973,NA,428,NA,"http://www.redfin.com/DC/Washington/1301-20th-St-NW-20036/unit-116/home/9059951","","",38.9075853,-77.0445591,0.239415530782761
"107","PAST SALE",2017-08-31,"Condo/Co-op","555 Massachusetts Ave NW #502","Washington","DC",20001,310000,0,1,"Old City #2",460,NA,2005,48,674,265,"http://www.redfin.com/DC/Washington/555-Massachusetts-Ave-NW-20001/unit-502/home/10347862","MRIS","DC9968193",38.9017582,-77.0194236,0.152860970332694
"108","PAST SALE",2017-09-01,"Condo/Co-op","1615 Q St NW #1210","Washington","DC",20009,320000,0,1,"Old City #2",401,NA,1895,47,798,315,"http://www.redfin.com/DC/Washington/1615-Q-St-NW-20009/unit-1210/home/9866336","MRIS","DC10019354",38.9113588,-77.0373711,0.405793927757842
"109","PAST SALE",2017-08-31,"Condo/Co-op","3101 New Mexico Ave NW #805","Washington","DC",20016,210000,0,1,"Wesley Heights",585,NA,1979,48,359,414,"http://www.redfin.com/DC/Washington/3101-New-Mexico-Ave-NW-20016/unit-805/home/9954728","MRIS","DC9992689",38.9325798,-77.0848915,1.11972210313895
"110","PAST SALE",2017-08-29,"Condo/Co-op","1 Scott Cir NW #514","Washington","DC",20036,202500,0,1,"Dupont",400,NA,1941,50,506,461,"http://www.redfin.com/DC/Washington/1-Scott-Cir-NW-20036/unit-514/home/9868931","MRIS","DC9937328",38.9077561,-77.035982,0.380640634839547
"111","PAST SALE",NA,"Condo/Co-op","3000 7th St NE Apt 121","Washington","DC",20017,150000,0,1,"",354,NA,1967,NA,424,NA,"http://www.redfin.com/DC/Washington/3000-7th-St-NE-20017/unit-121/home/10076573","","",38.9278553,-76.9963847,0.425735077966208
"112","PAST SALE",2017-08-02,"Condo/Co-op","1701 16th St NW #614","Washington","DC",20009,249000,0,1,"Old City #2",328,NA,1920,77,759,518,"http://www.redfin.com/DC/Washington/1701-16th-St-NW-20009/unit-614/home/39582135","MRIS","DC9976583",38.9130203,-77.036064,0.470198635361924
"113","PAST SALE",2017-08-03,"Condo/Co-op","2710 Macomb St NW #111","Washington","DC",20008,227500,0,1,"Forest Hills",398,NA,1960,76,572,400,"http://www.redfin.com/DC/Washington/2710-Macomb-St-NW-20008/unit-111/home/9989587","MRIS","DC9985065",38.9333248,-77.0554879,0.258152653733224
"114","PAST SALE",2017-10-10,"Condo/Co-op","3900 Cathedral Ave NW Unit 513-A","Washington","DC",20016,216000,0,1,"Observatory Circle",580,NA,1931,8,372,488,"http://www.redfin.com/DC/Washington/3900-Cathedral-Ave-NW-20016/unit-513-A/home/40389215","MRIS","DC10027946",38.9290548,-77.0781349,1.14575270661514
"115","PAST SALE",2017-07-26,"Condo/Co-op","1736 Willard St NW #505","Washington","DC",20009,321000,0,1,"Dupont",450,NA,1890,84,713,273,"http://www.redfin.com/DC/Washington/1736-Willard-St-NW-20009/unit-505/home/9857940","MRIS","DC9979813",38.9161123,-77.0398796,0.443010387915172
"116","PAST SALE",2017-07-21,"Condo/Co-op","3100 Connecticut Ave NW #219","Washington","DC",20008,248000,0,1,"Garfield",504,NA,1923,89,492,299,"http://www.redfin.com/DC/Washington/3100-Connecticut-Ave-NW-20008/unit-219/home/9986986","MRIS","DC9959515",38.9307363,-77.0563097,0.367099816485051
"117","PAST SALE",2017-09-15,"Condo/Co-op","520 N St SW Unit S-112","Washington","DC",20024,242900,0,1,"Rla (sw)",565,NA,1966,33,430,576,"http://www.redfin.com/DC/Washington/520-N-St-SW-20024/unit-S-112/home/40119246","MRIS","DC9995224",38.8743973,-77.0187172,0.212010877201364
"118","PAST SALE",2017-08-22,"Condo/Co-op","2800 Wisconsin Ave NW #310","Washington","DC",20007,174900,0,1,"Observatory Circle",464,NA,1964,57,377,425,"http://www.redfin.com/DC/Washington/2800-Wisconsin-Ave-NW-20007/unit-310/home/9974278","MRIS","DC9979524",38.9264399,-77.0735292,1.03236462573907
"119","PAST SALE",2017-09-22,"Condo/Co-op","1101 L St NW #510","Washington","DC",20005,271000,0,1,"Old City #2",428,NA,1926,26,633,300,"http://www.redfin.com/DC/Washington/1101-L-St-NW-20005/unit-510/home/9876072","MRIS","DC10025087",38.9042969,-77.0272973,0.303150419513792
"120","PAST SALE",2017-08-17,"Condo/Co-op","2800 Wisconsin Ave NW #805","Washington","DC",20007,195000,0,1,"Observatory Circle",446,NA,1964,62,437,424,"http://www.redfin.com/DC/Washington/2800-Wisconsin-Ave-NW-20007/unit-805/home/9974175","MRIS","DC9944434",38.9264399,-77.0735292,1.03236462573907
"121","PAST SALE",2017-08-30,"Condo/Co-op","1117 10th St NW #307","Washington","DC",20001,330000,0,1,"Old City #2",548,NA,2006,49,602,366,"http://www.redfin.com/DC/Washington/1117-10th-St-NW-20001/unit-307/home/11746610","MRIS","DC10013064",38.904518,-77.0256633,0.215050394978326
"122","PAST SALE",2017-07-26,"Townhouse","4016 Georgia Ave NW","Washington","DC",20011,1367000,0,7.5,"Columbia Heights",4586,2584,1925,84,298,NA,"http://www.redfin.com/DC/Washington/4016-Georgia-Ave-NW-20011/home/18433397","MRIS","DC9970628",38.9403624,-77.0254006,0.215774276106748
"123","PAST SALE",2017-08-25,"Townhouse","1713 S St NW #2","Washington","DC",20009,469000,1,1,"Dupont Circle",NA,NA,2017,54,NA,170,"http://www.redfin.com/DC/Washington/1713-S-St-NW-20009/unit-2/home/142044399","MRIS","DC9998825",38.9142823,-77.039886,0.351012940278564
"124","PAST SALE",2017-08-24,"Townhouse","300 Oklahoma Ave NE #202","Washington","DC",20002,282000,1,1,"Old City #1",520,NA,1930,55,542,230,"http://www.redfin.com/DC/Washington/300-Oklahoma-Ave-NE-20002/unit-202/home/11745385","MRIS","DC9920052",38.8953186,-76.9737168,0.474505812699402
"125","PAST SALE",2017-08-07,"Townhouse","2615 4th St NE #302","Washington","DC",20002,245874,1,1,"Brookland",646,NA,1940,72,381,298,"http://www.redfin.com/DC/Washington/2615-4th-St-NE-20002/unit-302/home/11748522","MRIS","DC9967504",38.9240088,-77.0002185,0.398199241088356
"126","PAST SALE",2017-08-18,"Townhouse","2013 Benning Rd NE","Washington","DC",20002,631000,1,1.5,"Old City #1",NA,1889,1927,61,NA,NA,"http://www.redfin.com/DC/Washington/2013-Benning-Rd-NE-20002/home/108560130","MRIS","DC9739307",38.8984262,-76.975028,0.681426545933454
"127","PAST SALE",2017-08-09,"Townhouse","1418 11th St NW #3","Washington","DC",20001,501000,1,1.5,"Logan Circle/shaw",820,NA,1900,70,611,163,"http://www.redfin.com/DC/Washington/1418-11th-St-NW-20001/unit-3/home/10192674","MRIS","DC9997793",38.9092486,-77.0273989,0.355190138212629
"128","PAST SALE",2017-08-14,"Single Family Residential","723 Varnum St NW","Washington","DC",20011,525000,1,1,"Petworth",1586,2850,1920,65,331,NA,"http://www.redfin.com/DC/Washington/723-Varnum-St-NW-20011/home/10051259","MRIS","DC10031440",38.9432163,-77.0227439,0.421476516833371
"129","PAST SALE",2017-08-14,"Townhouse","1401 Church St NW #126","Washington","DC",20005,760000,1,2,"Logan Circle",980,NA,2005,65,776,527,"http://www.redfin.com/DC/Washington/1401-Church-St-NW-20005/unit-126/home/10191967","MRIS","DC10004610",38.9105771,-77.03286,0.490315729197573
"130","PAST SALE",2017-08-18,"Townhouse","732 15th St SE #3","Washington","DC",20003,499000,1,1,"Old City #1",714,NA,1926,61,699,252,"http://www.redfin.com/DC/Washington/732-15th-St-SE-20003/unit-3/home/62523616","MRIS","DC9972248",38.8800454,-76.9834989,0.137263307439738
"131","PAST SALE",NA,"Townhouse","2119 N St NW #214","Washington","DC",20037,339900,1,1,"",431,228,1900,NA,789,NA,"http://www.redfin.com/DC/Washington/2119-N-St-NW-20037/unit-214/home/9051942","","",38.9074465,-77.0476565,0.289289046373942
"132","PAST SALE",2017-07-21,"Townhouse","3819 V St SE #3819","Washington","DC",20020,82000,1,1,"Hill Crest",750,NA,1940,89,109,334,"http://www.redfin.com/DC/Washington/3819-V-St-SE-20020/unit-3819/home/129397880","MRIS","DC9984131",38.8641528,-76.9518663,0.917133311034805
"133","PAST SALE",NA,"Townhouse","15 Hawthorne Ct NE","Washington","DC",20017,250500,1,1,"",602,886,1987,NA,416,NA,"http://www.redfin.com/DC/Washington/15-Hawthorne-Ct-NE-20017/home/10071001","","",38.9280336,-77.0084654,0.850041944748712
"134","PAST SALE",2017-10-03,"Townhouse","1104 Euclid St NW #2","Washington","DC",20009,379900,1,1,"Columbia Heights",822,NA,1910,15,462,150,"http://www.redfin.com/DC/Washington/1104-Euclid-St-NW-20009/unit-2/home/143308040","MRIS","DC10032989",38.9236093,-77.0273548,0.457940546912887
"135","PAST SALE",2017-08-23,"Townhouse","1715 15th St NW #39","Washington","DC",20009,519900,1,1,"Logan",770,NA,1929,56,675,342,"http://www.redfin.com/DC/Washington/1715-15th-St-NW-20009/unit-39/home/9869821","MRIS","DC9951683",38.913249,-77.0339606,0.372844148639711
"136","PAST SALE",2017-10-02,"Townhouse","1420 North Capitol St NW","Washington","DC",20002,990000,1,1,"Old City #2",3750,2000,1900,16,264,NA,"http://www.redfin.com/DC/Washington/1420-N-Capitol-St-NW-20002/home/112967144","MRIS","DC9880288",38.9092547,-77.0094065,0.35526124556507
"137","PAST SALE",2017-09-29,"Townhouse","2 Library Ct SE","Washington","DC",20003,566000,1,1,"Capitol Hill",728,521,1900,19,777,NA,"http://www.redfin.com/DC/Washington/2-Library-Ct-SE-20003/home/9894134","MRIS","DC10045541",38.888046,-77.001403,0.323882663458936
"138","PAST SALE",2017-08-15,"Townhouse","3924 W St NW #3","Washington","DC",20007,430000,1,1,"Glover Park",603,NA,1938,64,713,162,"http://www.redfin.com/DC/Washington/3924-W-St-NW-20007/unit-3/home/124402792","MRIS","DC9979082",38.9189577,-77.0780636,1.41438703822154
"139","PAST SALE",2017-08-28,"Townhouse","1728 U St NW #4","Washington","DC",20009,628000,1,1,"Old City #2",795,NA,1905,51,790,193,"http://www.redfin.com/DC/Washington/1728-U-St-NW-20009/unit-4/home/140524244","MRIS","DC9998531",38.916733,-77.039668,0.484285787416916
"140","PAST SALE",2017-08-18,"Townhouse","1830 Jefferson Pl NW #7","Washington","DC",20036,675000,1,2,"Central",894,NA,2006,61,755,487,"http://www.redfin.com/DC/Washington/1830-Jefferson-Pl-NW-20036/unit-7/home/12534354","MRIS","DC10015568",38.9062584,-77.0429401,0.327216845028663
"141","PAST SALE",2017-08-18,"Townhouse","5201-B Wisconsin Ave NW #303","Washington","DC",20015,395000,1,1,"Chevy Chase",700,NA,2010,61,564,367,"http://www.redfin.com/DC/Washington/5201-Wisconsin-Ave-20015/unit-303/home/28923803","MRIS","DC9910677",38.9572487,-77.0836307,0.272963951302868
"142","PAST SALE",NA,"Townhouse","2026 Fort Davis St SE Apt 202","Washington","DC",20020,65000,1,1,"",623,1197,1940,NA,104,NA,"http://www.redfin.com/DC/Washington/2026-Fort-Davis-St-SE-20020/unit-202/home/10154356","","",38.8637038,-76.9500015,0.919693653513324
"143","PAST SALE",NA,"Condo/Co-op","1688 Euclid St NW Apt A","Washington","DC",20009,370000,1,1,"",650,NA,1980,NA,569,NA,"http://www.redfin.com/DC/Washington/1688-Euclid-St-NW-20009/unit-A/home/10005958","","",38.9231624,-77.0387768,0.490183237267466
"144","PAST SALE",2017-09-26,"Townhouse","27 Quincy Pl NE #2","Washington","DC",20002,499000,1,1,"Eckington",825,NA,1905,22,605,260,"http://www.redfin.com/DC/Washington/27-Quincy-Pl-NE-20002/unit-2/home/143182304","MRIS","DC10027920",38.91166,-77.007811,0.386464776257561
"145","PAST SALE",2017-07-25,"Townhouse","2413 20th St NW #4","Washington","DC",20009,553000,1,1.5,"Kalorama Place",955,NA,1995,85,579,347,"http://www.redfin.com/DC/Washington/2413-20th-St-NW-20009/unit-4/home/122698963","MRIS","DC9977081",38.9214201,-77.0466898,0.476627021711992
"146","PAST SALE",2017-07-28,"Townhouse","2119 N St NW #5","Washington","DC",20037,339900,1,1,"Dupont Circle",500,NA,1900,82,680,180,"http://www.redfin.com/DC/Washington/2119-N-St-NW-20037/unit-5/home/81888889","MRIS","DC9956795",38.9074466,-77.0476565,0.28928310895991
"147","PAST SALE",NA,"Townhouse","87 Hawthorne Ct NE #87","Washington","DC",20017,230000,1,1,"",719,919,1982,NA,320,NA,"http://www.redfin.com/DC/Washington/87-Hawthorne-Ct-NE-20017/unit-87/home/10071153","","",38.9280084,-77.0083886,0.847231089172551
"148","PAST SALE",NA,"Townhouse","88 P St NW","Washington","DC",20001,995000,3,3.5,"",2988,1800,1900,NA,333,NA,"http://www.redfin.com/DC/Washington/88-P-St-NW-20001/home/113723510","","",38.9095028,-77.011826,0.483485486408357
"149","PAST SALE",2017-10-12,"Townhouse","1518 Swann St NW #1","Washington","DC",20009,425000,1,1,"Dupont",620,NA,1890,6,685,88,"http://www.redfin.com/DC/Washington/1518-Swann-St-NW-20009/unit-1/home/9868070","MRIS","DC10047916",38.9147524,-77.0354046,0.379283768326923
"150","PAST SALE",2017-10-16,"Townhouse","915 E St NW #507","Washington","DC",20004,399900,1,1,"Central",700,NA,2006,2,571,487,"http://www.redfin.com/DC/Washington/915-E-St-NW-20004/unit-507/home/21646993","MRIS","DC10057581",38.8964898,-77.0250247,0.199432131983924
"151","PAST SALE",2017-08-15,"Townhouse","1326 Vermont Ave NW #5","Washington","DC",20005,419000,1,1,"Logan",540,NA,1900,64,776,310,"http://www.redfin.com/DC/Washington/1326-Vermont-Ave-NW-20005/unit-5/home/9872587","MRIS","DC9971988",38.9083119,-77.030637,0.503998246912694
"152","PAST SALE",NA,"Multi-Family (2-4 Unit)","621 S Carolina Ave SE","Washington","DC",20003,862000,1,1.5,"",1152,1170,1900,NA,748,NA,"http://www.redfin.com/DC/Washington/621-S-Carolina-Ave-SE-20003/home/9900448","","",38.8831758,-76.9976146,0.122375037940763
"153","PAST SALE",2017-08-30,"Townhouse","2407 20th St NW #1098","Washington","DC",20009,540000,1,1.5,"Kalorama",955,NA,1998,49,565,347,"http://www.redfin.com/DC/Washington/2407-20th-St-NW-20009/unit-1098/home/10179049","MRIS","DC9982808",38.9209716,-77.0467044,0.497000749877143
"154","PAST SALE",2017-08-25,"Townhouse","1713 S St NW #1","Washington","DC",20009,452500,1,1,"Dupont Circle",NA,NA,2017,54,NA,187,"http://www.redfin.com/DC/Washington/1713-S-St-NW-20009/unit-1/home/142044388","MRIS","DC9998694",38.9142823,-77.0398859,0.351017077467721
"155","PAST SALE",2017-07-28,"Townhouse","1308 Bryant St NE #1","Washington","DC",20018,280000,1,1,"Brentwood",716,NA,1941,82,391,164,"http://www.redfin.com/DC/Washington/1308-Bryant-St-NE-20018/unit-1/home/21646435","MRIS","DC9970571",38.921352,-76.9883738,0.266588118521832
"156","PAST SALE",2017-07-25,"Townhouse","15 Hawthorne Ct NE #15","Washington","DC",20017,250500,1,1,"Brookland",602,NA,1987,85,416,273,"http://www.redfin.com/DC/Washington/15-Hawthorne-Ct-NE-20017/unit-15/home/115443470","MRIS","DC9968191",38.9280336,-77.0084654,0.850041944748712
"157","PAST SALE",2017-09-01,"Condo/Co-op","1000 New Jersey Ave SE #1105","Washington","DC",20003,333100,1,1,"Old City #1",650,NA,2006,47,512,1187,"http://www.redfin.com/DC/Washington/1000-New-Jersey-Ave-SE-20003/unit-1105/home/142138130","MRIS","DC10002451",38.8780119,-77.0042672,0.099553823177042
"158","PAST SALE",2017-07-28,"Condo/Co-op","777 7th St NW #915","Washington","DC",20001,395000,1,1,"Gallery Place",683,NA,2005,82,578,605,"http://www.redfin.com/DC/Washington/777-7th-St-NW-20001/unit-915/home/10193222","MRIS","DC9935872",38.899494,-77.0217858,0.0586383001329145
"159","PAST SALE",2017-08-25,"Condo/Co-op","800 4th St SW Unit N618","Washington","DC",20024,349000,1,1,"Rla (sw)",618,NA,1959,54,565,363,"http://www.redfin.com/DC/Washington/800-4th-St-SW-20024/unit-N618/home/12531815","MRIS","DC10003251",38.8802745,-77.0171251,0.24275547649679
"160","PAST SALE",2017-08-17,"Condo/Co-op","2010 Kalorama Rd NW #103","Washington","DC",20009,310000,1,1,"Dupont",483,NA,1923,62,642,232,"http://www.redfin.com/DC/Washington/2010-Kalorama-Rd-NW-20009/unit-103/home/21699308","MRIS","DC9935849",38.9187485,-77.0466558,0.541765205386201
"161","PAST SALE",2017-10-02,"Condo/Co-op","437 New York Ave NW #213","Washington","DC",20001,445000,1,1,"Old City #2",733,NA,2008,16,607,473,"http://www.redfin.com/DC/Washington/437-New-York-Ave-NW-20001/unit-213/home/21645113","MRIS","DC10033828",38.9050314,-77.0168353,0.277418706770774
"162","PAST SALE",2017-10-06,"Condo/Co-op","2630 Adams Mill Rd NW #306","Washington","DC",20009,363000,1,1,"Mount Pleasant",584,NA,2003,12,622,279,"http://www.redfin.com/DC/Washington/2630-Adams-Mill-Rd-NW-20009/unit-306/home/102182376","MRIS","DC10051476",38.9237858,-77.0451096,0.468768320491854
"163","PAST SALE",2017-07-31,"Condo/Co-op","912 Shepherd St NW #303","Washington","DC",20011,335000,1,1,"Columbia Heights",629,NA,1940,79,533,264,"http://www.redfin.com/DC/Washington/912-Shepherd-St-NW-20011/unit-303/home/21645883","MRIS","DC10019760",38.9395532,-77.0256668,0.165494910080683
"164","PAST SALE",2017-09-22,"Condo/Co-op","460 New York Ave NW #204","Washington","DC",20001,447000,1,1,"Mount Vernon",674,NA,2015,26,663,431,"http://www.redfin.com/DC/Washington/460-New-York-Ave-NW-20001/unit-204/home/113744256","MRIS","DC10003819",38.9039077,-77.0181493,0.235839999261422
"165","PAST SALE",2017-09-22,"Condo/Co-op","1314 W St NW Unit C","Washington","DC",20009,365000,1,1,"Old City #2",445,NA,1900,26,820,134,"http://www.redfin.com/DC/Washington/1314-W-St-NW-20009/home/10192324","MRIS","DC9984402",38.9190095,-77.030414,0.160103791375709
"166","PAST SALE",2017-08-31,"Condo/Co-op","732 Lamont St NW #201","Washington","DC",20010,387000,1,1.5,"Columbia Heights",683,NA,2012,48,567,258,"http://www.redfin.com/DC/Washington/732-Lamont-St-NW-20010/unit-201/home/40486250","MRIS","DC9950389",38.930747,-77.0246535,0.45338874248223
"167","PAST SALE",2017-09-28,"Condo/Co-op","2611 Adams Mill Rd NW #307","Washington","DC",20009,315000,1,1,"Mount Pleasant",448,NA,1910,20,703,241,"http://www.redfin.com/DC/Washington/2611-Adams-Mill-Rd-NW-20009/unit-307/home/10006713","MRIS","DC10034549",38.923836,-77.0438469,0.532640685593682
"168","PAST SALE",2017-08-22,"Condo/Co-op","1354 Kenyon St NW #3","Washington","DC",20010,515000,1,1.5,"Columbia Heights",726,NA,1890,57,709,273,"http://www.redfin.com/DC/Washington/1354-Kenyon-St-NW-20010/unit-3/home/10195650","MRIS","DC10008111",38.929386,-77.0313175,0.102761381278835
"169","PAST SALE",2017-07-21,"Condo/Co-op","4600 Connecticut Ave NW #828","Washington","DC",20008,258995,1,1,"Van Ness",578,NA,1948,89,448,451,"http://www.redfin.com/DC/Washington/4600-Connecticut-Ave-NW-20008/unit-828/home/9976678","MRIS","DC9952002",38.9502054,-77.0675305,0.4116812217105
"170","PAST SALE",2017-10-06,"Condo/Co-op","3314 Mount Pleasant St NW #41","Washington","DC",20010,339900,1,1,"Mount Pleasant",604,NA,1922,12,563,297,"http://www.redfin.com/DC/Washington/3314-Mount-Pleasant-St-NW-20010/unit-41/home/11747665","MRIS","DC10056337",38.9330101,-77.0402446,0.497336619446621
"171","PAST SALE",2017-07-24,"Condo/Co-op","1441 Rhode Island Ave NW #706","Washington","DC",20005,503500,1,1,"Old City #2",675,NA,2003,86,746,401,"http://www.redfin.com/DC/Washington/1441-Rhode-Island-Ave-NW-20005/unit-706/home/21647805","MRIS","DC9970618",38.9085968,-77.0337573,0.490266475603726
"172","PAST SALE",2017-09-01,"Condo/Co-op","1300 N St NW #517","Washington","DC",20005,455000,1,1,"Old City #2",649,NA,2004,47,701,402,"http://www.redfin.com/DC/Washington/1300-N-St-NW-20005/unit-517/home/10341780","MRIS","DC9996784",38.9069228,-77.0300516,0.423920879926389
"173","PAST SALE",2017-07-21,"Condo/Co-op","1514 17th St NW #310","Washington","DC",20036,407000,1,1,"Old City #2",739,NA,1917,89,551,664,"http://www.redfin.com/DC/Washington/1514-17th-St-NW-20036/unit-310/home/39991283","MRIS","DC9951345",38.9101976,-77.0389905,0.323271419684082
"174","PAST SALE",2017-08-23,"Condo/Co-op","440 L St NW #202","Washington","DC",20001,446000,1,1,"Old City #2",676,NA,2007,56,660,456,"http://www.redfin.com/DC/Washington/440-L-St-NW-20001/unit-202/home/12533555","MRIS","DC9973029",38.9033883,-77.0174322,0.287527961026168
"175","PAST SALE",2017-09-25,"Condo/Co-op","2902 Porter St NW #51","Washington","DC",20008,450000,1,1,"Cleveland Park",714,NA,1900,23,630,285,"http://www.redfin.com/DC/Washington/2902-Porter-St-NW-20008/unit-51/home/10190691","MRIS","DC10033826",38.9366369,-77.0596206,0.0611300260491728
"176","PAST SALE",2017-07-26,"Condo/Co-op","811 4th St NW #1002","Washington","DC",20001,418000,1,1,"Old City #2",720,NA,2007,84,581,477,"http://www.redfin.com/DC/Washington/811-4th-St-NW-20001/unit-NW1002/home/12532015","MRIS","DC9970652",38.9009511,-77.0157111,0.283840984970829
"177","PAST SALE",NA,"Condo/Co-op","355 I St SW Unit S518","Washington","DC",20024,399900,1,1,"",667,NA,2005,NA,600,NA,"http://www.redfin.com/DC/Washington/355-I-St-SW-20024/unit-S518/home/10348668","","",38.8798038,-77.0165648,0.206653194849378
"178","PAST SALE",2017-08-14,"Condo/Co-op","1322 Missouri Ave NW #201","Washington","DC",20011,295000,1,1.5,"16th Street Heights",645,NA,1958,65,457,243,"http://www.redfin.com/DC/Washington/1322-Missouri-Ave-NW-20011/unit-201/home/11745028","MRIS","DC9827277",38.9614471,-77.0311176,1.20371126579433
"179","PAST SALE",2017-08-14,"Condo/Co-op","760 Girard St NW #202","Washington","DC",20001,360000,1,1,"Columbia Heights",678,NA,1927,65,531,189,"http://www.redfin.com/DC/Washington/760-Girard-St-NW-20001/unit-202/home/11748334","MRIS","DC9999876",38.9257333,-77.024833,0.479352459147223
"180","PAST SALE",NA,"Condo/Co-op","1330 New Hampshire Ave NW Apt 505","Washington","DC",20036,305000,1,1,"",527,NA,1963,NA,579,NA,"http://www.redfin.com/DC/Washington/1330-New-Hampshire-Ave-NW-20036/unit-505/home/9056968","","",38.90816,-77.0452812,0.200022792096249
"181","PAST SALE",2017-08-14,"Condo/Co-op","1527 Park Rd NW #202","Washington","DC",20010,325000,1,1,"Columbia Heights",600,NA,1905,65,542,260,"http://www.redfin.com/DC/Washington/1527-Park-Rd-NW-20010/unit-202/home/11748148","MRIS","DC9985240",38.9314138,-77.0358631,0.250010221482139
"182","PAST SALE",2017-08-23,"Condo/Co-op","1514 21st St NW #3","Washington","DC",20036,515200,1,1,"Central",648,NA,1996,56,795,327,"http://www.redfin.com/DC/Washington/1514-21st-St-NW-20036/unit-3/home/9051154","MRIS","DC9939649",38.9101989,-77.046956,0.12495034538861
"183","PAST SALE",2017-07-21,"Condo/Co-op","1657 31st St NW #210","Washington","DC",20007,330000,1,1,"Georgetown",600,NA,1910,89,550,775,"http://www.redfin.com/DC/Washington/1657-31st-St-NW-20007/unit-405/home/12534690","MRIS","DC9943337",38.9120669,-77.0623603,0.942511411571033
"184","PAST SALE",2017-08-24,"Condo/Co-op","4570 Macarthur Blvd NW Unit T-6","Washington","DC",20007,211000,1,1,"Palisades",554,NA,1963,55,381,483,"http://www.redfin.com/DC/Washington/4570-MacArthur-Blvd-NW-20007/unit-T6/home/9939129","MRIS","DC9956079",38.9093014,-77.0882866,1.22962922220019
"185","PAST SALE",2017-08-25,"Condo/Co-op","1632 30th St NW #12","Washington","DC",20007,507500,1,2,"Georgetown",655,NA,1940,54,775,248,"http://www.redfin.com/DC/Washington/1632-30th-St-NW-20007/unit-12/home/9931466","MRIS","DC9985150",38.911528,-77.059541,0.788805557525118
"186","PAST SALE",2017-08-30,"Condo/Co-op","1150 K St NW #506","Washington","DC",20005,452500,1,1,"Central",750,NA,2005,49,603,439,"http://www.redfin.com/DC/Washington/1150-K-St-NW-20005/unit-506/home/10347520","MRIS","DC9990358",38.9021883,-77.0277361,0.256356283798716
"187","PAST SALE",2017-07-21,"Condo/Co-op","3620 Connecticut Ave NW #32","Washington","DC",20008,190000,1,1,"Cleveland Park",505,NA,1926,89,376,470,"http://www.redfin.com/DC/Washington/3620-Connecticut-Ave-NW-20008/unit-32/home/114018931","MRIS","DC9956534",38.937623,-77.060222,0.13458247990367
"188","PAST SALE",2017-07-21,"Condo/Co-op","1705 Lanier Pl NW #201","Washington","DC",20009,325000,1,1,"Adams Morgan/lanier Heights",650,NA,1925,89,500,475,"http://www.redfin.com/DC/Washington/1705-Lanier-Pl-NW-20009/unit-201/home/124522243","MRIS","DC9979424",38.9262405,-77.0398412,0.405694981993354
"189","PAST SALE",2017-07-27,"Condo/Co-op","2022 Columbia Rd NW #303","Washington","DC",20009,410000,1,1,"Kalorama",650,NA,1910,83,631,445,"http://www.redfin.com/DC/Washington/2022-Columbia-Rd-NW-20009/unit-303/home/9999570","MRIS","DC9978277",38.9171573,-77.0454027,0.424253776009991
"190","PAST SALE",2017-08-23,"Condo/Co-op","1444 W St NW #403","Washington","DC",20009,145125,1,1,"Old City #2",625,NA,1909,56,232,1076,"http://www.redfin.com/DC/Washington/1444-W-St-NW-20009/unit-403/home/39585360","MRIS","DC9923255",38.9188866,-77.0339898,0.300496207306956
"191","PAST SALE",2017-08-01,"Condo/Co-op","2401 H St NW #507","Washington","DC",20037,295000,1,1,"Foggy Bottom",579,NA,1960,78,509,668,"http://www.redfin.com/DC/Washington/2401-H-St-NW-20037/unit-507/home/9046720","MRIS","DC9965234",38.8998895,-77.0517577,0.110603138526664
"192","PAST SALE",2017-08-22,"Condo/Co-op","3701 Connecticut Ave NW #222","Washington","DC",20008,285000,1,1,"Forest Hills",700,NA,1951,57,407,750,"http://www.redfin.com/DC/Washington/3701-Connecticut-Ave-NW-20008/unit-222/home/9990881","MRIS","DC10010720",38.9382902,-77.0593436,0.159908587640247
"193","PAST SALE",2017-08-10,"Condo/Co-op","1701 16th St NW #142","Washington","DC",20009,395000,1,1,"Dupont",575,NA,1920,69,687,909,"http://www.redfin.com/DC/Washington/1701-16th-St-NW-20009/unit-142/home/40271922","MRIS","DC9974597",38.9130203,-77.036064,0.470198635361924
"194","PAST SALE",2017-08-17,"Condo/Co-op","2426 Ontario Rd NW #205","Washington","DC",20009,417000,1,1,"Adams Morgan",644,NA,2007,62,648,313,"http://www.redfin.com/DC/Washington/2426-Ontario-Rd-NW-20009/unit-205/home/21644583","MRIS","DC10005001",38.921459,-77.040439,0.637996626387873
"195","PAST SALE",2017-08-22,"Condo/Co-op","1390 Kenyon St NW #604","Washington","DC",20010,405000,1,1,"Columbia Heights",618,NA,2007,57,655,427,"http://www.redfin.com/DC/Washington/1390-Kenyon-St-NW-20010/unit-604/home/12530734","MRIS","DC9950321",38.9297375,-77.032194,0.0881265925514975
"196","PAST SALE",NA,"Condo/Co-op","2010 Kalorama Rd NW Apt 103","Washington","DC",20009,310000,1,1,"",500,NA,1923,NA,620,NA,"http://www.redfin.com/DC/Washington/2010-Kalorama-Rd-NW-20009/unit-103/home/28496616","","",38.9187485,-77.0466558,0.541765205386201
"197","PAST SALE",NA,"Condo/Co-op","3314 Mount Pleasant St NW Apt 45","Washington","DC",20010,320000,1,1,"",512,NA,1922,NA,625,NA,"http://www.redfin.com/DC/Washington/3314-Mount-Pleasant-St-NW-20010/unit-45/home/23066295","","",38.9330101,-77.0402446,0.497336619446621
"198","PAST SALE",NA,"Condo/Co-op","1939 17th St NW Apt 4","Washington","DC",20009,365000,1,1,"",568,NA,1910,NA,643,NA,"http://www.redfin.com/DC/Washington/1939-17th-St-NW-20009/unit-4/home/9865067","","",38.9166873,-77.0384873,0.512697955393427
"199","PAST SALE",2017-08-30,"Condo/Co-op","1673 Park Rd NW #305","Washington","DC",20010,351500,1,1,"Mount Pleasant",539,NA,1926,49,652,222,"http://www.redfin.com/DC/Washington/1673-Park-Rd-NW-20010/unit-305/home/10009618","MRIS","DC10011111",38.932582,-77.038715,0.415034114723854
"200","PAST SALE",2017-08-10,"Condo/Co-op","1731 Willard St NW #403","Washington","DC",20009,327384,1,1,"Old City #2",512,NA,1926,69,639,282,"http://www.redfin.com/DC/Washington/1731-Willard-St-NW-20009/unit-403/home/9858222","MRIS","DC9972490",38.9164576,-77.0395811,0.471740235808664
"201","PAST SALE",NA,"Condo/Co-op","1716 S St NW","Washington","DC",20009,160141,1,1,"",736,NA,1898,NA,218,NA,"http://www.redfin.com/DC/Washington/1716-S-St-NW-20009/home/9859444","","",38.9139528,-77.0393266,0.361454311781861
"202","PAST SALE",2017-08-18,"Condo/Co-op","1545 18th St NW #506","Washington","DC",20036,399999,1,1,"Old City #2",646,NA,1964,61,619,629,"http://www.redfin.com/DC/Washington/1545-18th-St-NW-20036/unit-506/home/9861834","MRIS","DC10002774",38.910903,-77.0411095,0.204177486186274
"203","PAST SALE",NA,"Condo/Co-op","2141 P St NW Apt 1005","Washington","DC",20037,515000,1,1,"",663,NA,1980,NA,777,NA,"http://www.redfin.com/DC/Washington/2141-P-St-NW-20037/unit-1005/home/9050953","","",38.9099684,-77.0479256,0.178865785569431
"204","PAST SALE",2017-07-24,"Condo/Co-op","1250 4th St SW Unit W611","Washington","DC",20024,290000,1,1,"Rla (sw)",570,NA,1967,86,509,496,"http://www.redfin.com/DC/Washington/1250-4th-St-SW-20024/unit-W-611/home/9886167","MRIS","DC9960535",38.8751976,-77.0172765,0.123875203595128
"205","PAST SALE",2017-08-25,"Condo/Co-op","525 Water St SW #330","Washington","DC",20024,392900,1,1,"Southwest",540,NA,2016,54,728,406,"http://www.redfin.com/DC/Washington/525-Water-St-SW-20024/unit-330/home/113173065","MRIS","DC9871159",38.876059,-77.0202399,0.218107956033102
"206","PAST SALE",NA,"Condo/Co-op","2116 Suitland Ter SE Apt 201","Washington","DC",20020,74000,1,1,"",636,NA,1940,NA,116,NA,"http://www.redfin.com/DC/Washington/2116-Suitland-Ter-SE-20020/unit-201/home/10153764","","",38.862686,-76.9492117,0.872665320956536
"207","PAST SALE",2017-08-28,"Condo/Co-op","525 Water St SW #311","Washington","DC",20024,409900,1,1,"Southwest",540,NA,2016,51,759,401,"http://www.redfin.com/DC/Washington/525-Water-St-SW-20024/unit-311/home/113745442","MRIS","DC9938152",38.876059,-77.0202399,0.218107956033102
"208","PAST SALE",NA,"Condo/Co-op","1831 2nd St NE Unit 305","Washington","DC",20002,297000,1,1,"",500,NA,1900,NA,594,NA,"http://www.redfin.com/DC/Washington/1831-2nd-St-NE-20002/unit-305/home/96402112","","",38.9152183,-77.0031632,0.546583987438459
"209","PAST SALE",2017-08-24,"Condo/Co-op","500 25th Pl NE #203","Washington","DC",20002,294500,1,1,"Old City #1",658,NA,1930,55,448,272,"http://www.redfin.com/DC/Washington/500-25th-Pl-NE-20002/unit-203/home/39956213","MRIS","DC9961782",38.896289,-76.972012,0.562902040939642
"210","PAST SALE",2017-08-21,"Condo/Co-op","5210-5210 5210 North Capitol St NW #305","Washington","DC",20011,139900,1,1,"Petworth",721,NA,1941,58,194,485,"http://www.redfin.com/DC/Washington/5210-N-Capitol-St-NW-20011/unit-305/home/143394040","MRIS","DC10037341",38.9536193,-77.0093826,0.538897270198377
"211","PAST SALE",NA,"Condo/Co-op","939 Longfellow St NW Apt 109","Washington","DC",20011,57500,1,1,"",640,NA,1940,NA,90,NA,"http://www.redfin.com/DC/Washington/939-Longfellow-St-NW-20011/unit-109/home/10345492","","",38.9576181,-77.0272529,1.33305817010963
"212","PAST SALE",2017-08-21,"Condo/Co-op","601 Pennsylvania Ave NW #505","Washington","DC",20004,389000,1,1,"Central",559,NA,1991,58,696,589,"http://www.redfin.com/DC/Washington/601-Pennsylvania-Ave-NW-20004/unit-505/home/9879701","MRIS","DC9977015",38.8933245,-77.020555,0.127097563790305
"213","PAST SALE",2017-07-24,"Condo/Co-op","555 Massachusetts Ave NW #106","Washington","DC",20001,409000,1,1,"Mount Vernon Sq / Penn Quarter",625,NA,2005,86,654,375,"http://www.redfin.com/DC/Washington/555-Massachusetts-Ave-NW-20001/unit-106/home/113958057","MRIS","DC9983790",38.9017582,-77.0194236,0.152860970332694
"214","PAST SALE",2017-08-11,"Condo/Co-op","555 Massachusetts Ave NW #612","Washington","DC",20001,449000,1,1,"Mount Vernon",667,NA,2005,68,673,418,"http://www.redfin.com/DC/Washington/555-Massachusetts-Ave-NW-20001/unit-612/home/10347912","MRIS","DC9951447",38.9017583,-77.0194236,0.152867049794117
"215","PAST SALE",NA,"Condo/Co-op","2608 Sherman Ave NW Apt B04","Washington","DC",20001,255000,1,1,"",488,NA,1967,NA,523,NA,"http://www.redfin.com/DC/Washington/2608-Sherman-Ave-NW-20001/unit-B04/home/11745173","","",38.9241716,-77.0258376,0.489997739784234
"216","PAST SALE",NA,"Condo/Co-op","2 17th St SE Apt 205","Washington","DC",20003,314000,1,1,"",532,NA,1921,NA,590,NA,"http://www.redfin.com/DC/Washington/2-17th-St-SE-20003/unit-205/home/39900478","","",38.8894022,-76.9805202,0.28391867081871
"217","PAST SALE",2017-08-11,"Condo/Co-op","1301 Delaware Ave SW Unit N516","Washington","DC",20024,205000,1,1,"Rla (sw)",590,NA,1962,68,347,816,"http://www.redfin.com/DC/Washington/1301-Delaware-Ave-SW-20024/unit-N516/home/12175909","MRIS","DC9922875",38.8738327,-77.015449,0.211962950065431
"218","PAST SALE",2017-08-28,"Condo/Co-op","1000 New Jersey Ave SE #615","Washington","DC",20003,322500,1,1,"Old City #1",696,NA,2006,51,463,1036,"http://www.redfin.com/DC/Washington/1000-New-Jersey-Ave-SE-20003/unit-615/home/142951458","MRIS","DC10009952",38.8780119,-77.0042672,0.099553823177042
"219","PAST SALE",2017-10-05,"Condo/Co-op","730 24th St NW #410","Washington","DC",20037,274000,1,1,"Foggy Bottom",730,NA,1961,13,375,660,"http://www.redfin.com/DC/Washington/730-24th-St-NW-20037/unit-410/home/26845954","MRIS","DC9933724",38.8991084,-77.0517335,0.156638046207995
"220","PAST SALE",2017-09-28,"Condo/Co-op","3701 Connecticut Ave NW #322","Washington","DC",20008,324900,1,1,"Forest Hills",700,NA,1951,20,464,794,"http://www.redfin.com/DC/Washington/3701-Connecticut-Ave-NW-20008/unit-322/home/9990950","MRIS","DC10019507",38.9382902,-77.0593436,0.159908587640247
"221","PAST SALE",2017-10-13,"Condo/Co-op","4600 Connecticut Ave NW #425","Washington","DC",20008,263000,1,1,"Wakefield",578,NA,1948,5,455,444,"http://www.redfin.com/DC/Washington/4600-Connecticut-Ave-NW-20008/unit-425/home/9976374","MRIS","DC10061247",38.9502054,-77.0675305,0.4116812217105
"222","PAST SALE",2017-09-18,"Condo/Co-op","2004 3rd St NE #103","Washington","DC",20002,305000,1,1,"Eckington",605,NA,1954,30,504,300,"http://www.redfin.com/DC/Washington/2004-3rd-St-NE-20002/unit-103/home/12529985","MRIS","DC10028918",38.917342,-77.0023291,0.590957896148309
"223","PAST SALE",2017-09-28,"Condo/Co-op","1457 Park Rd NW #102","Washington","DC",20010,297000,1,1,"Columbia Heights",738,NA,1928,20,402,403,"http://www.redfin.com/DC/Washington/1457-Park-Rd-NW-20010/unit-000102/home/11748154","MRIS","DC10029058",38.931238,-77.0346133,0.203224208979057
"224","PAST SALE",2017-09-29,"Condo/Co-op","560 N St SW Unit N409","Washington","DC",20024,346000,1,1,"Harbor Square",680,NA,1966,19,509,935,"http://www.redfin.com/DC/Washington/560-N-St-SW-20024/unit-N409/home/81865043","MRIS","DC10023487",38.8744909,-77.0189432,0.214758172752261
"225","PAST SALE",2017-10-06,"Condo/Co-op","1701 16th St NW #322","Washington","DC",20009,399440,1,1,"Dupont Circle",712,NA,1920,12,561,619,"http://www.redfin.com/DC/Washington/1701-16th-St-NW-20009/unit-322/home/28494983","MRIS","DC10049164",38.9130203,-77.036064,0.470198635361924
"226","PAST SALE",2017-10-06,"Condo/Co-op","1308 Clifton St NW #509","Washington","DC",20009,435000,1,1,"Columbia Heights",700,NA,1912,12,621,345,"http://www.redfin.com/DC/Washington/1308-Clifton-St-NW-20009/unit-509/home/10191048","MRIS","DC10050838",38.9220978,-77.0302179,0.35989406593394
"227","PAST SALE",2017-10-06,"Condo/Co-op","3000 7th St NE #324","Washington","DC",20017,252111,1,1,"Brookland",700,NA,1967,12,360,513,"http://www.redfin.com/DC/Washington/3000-7th-St-NE-20017/unit-324/home/10076676","MRIS","DC10048106",38.9278553,-76.9963847,0.425735077966208
"228","PAST SALE",2017-09-29,"Condo/Co-op","4800 Georgia Ave NW #403","Washington","DC",20011,335000,1,1,"16th Street Heights",609,NA,1926,19,550,343,"http://www.redfin.com/DC/Washington/4800-Georgia-Ave-NW-20011/unit-403/home/53448699","MRIS","DC10000768",38.948505,-77.027306,0.788240025621719
"229","PAST SALE",2017-10-10,"Condo/Co-op","1301 Delaware Ave SW Unit N818","Washington","DC",20024,220000,1,1,"Rla (sw)",702,NA,1962,8,313,706,"http://www.redfin.com/DC/Washington/1301-Delaware-Ave-SW-20024/unit-N818/home/12173420","MRIS","DC9927998",38.8738327,-77.015449,0.211962950065431
"230","PAST SALE",2017-09-29,"Condo/Co-op","1250 4th St SW Unit W203","Washington","DC",20024,339000,1,1,"Sw Waterfront",718,NA,1967,19,472,673,"http://www.redfin.com/DC/Washington/1250-4th-St-SW-20024/unit-W203/home/9885995","MRIS","DC10034692",38.8751976,-77.0172765,0.123875203595128
"231","PAST SALE",2017-09-29,"Condo/Co-op","922 24th St NW #121","Washington","DC",20037,331000,1,1,"Foggy Bottom",700,NA,1962,19,473,671,"http://www.redfin.com/DC/Washington/922-24th-St-NW-20037/unit-121/home/9044740","MRIS","DC10040087",38.9014794,-77.0516208,0.062882944718985
"232","PAST SALE",2017-10-06,"Condo/Co-op","1404 Tuckerman St NW #203","Washington","DC",20011,165000,1,1,"Brightwood",586,NA,1937,12,282,200,"http://www.redfin.com/DC/Washington/1404-Tuckerman-St-NW-20011/unit-203/home/10018655","MRIS","DC10064263",38.9674035,-77.0336906,1.01919540913231
"233","PAST SALE",2017-10-12,"Condo/Co-op","1 Scott Cir NW #511","Washington","DC",20036,275000,1,1,"Dupont",506,NA,1941,6,543,495,"http://www.redfin.com/DC/Washington/1-Scott-Cir-NW-20036/unit-511/home/9868920","MRIS","DC10056660",38.9077561,-77.035982,0.380640634839547
"234","PAST SALE",2017-10-13,"Condo/Co-op","777 7th St NW #901","Washington","DC",20001,385000,1,1,"Residences At Gallery Place",615,NA,2005,5,626,452,"http://www.redfin.com/DC/Washington/777-7th-St-NW-20001/unit-901/home/10193201","MRIS","DC10024699",38.899494,-77.0217858,0.0586383001329145
"235","PAST SALE",2017-10-12,"Condo/Co-op","2111 Wisconsin Ave NW #221","Washington","DC",20007,295000,1,1,"Observatory Circle",650,NA,1988,6,454,698,"http://www.redfin.com/DC/Washington/2111-Wisconsin-Ave-NW-20007/unit-221/home/9932908","MRIS","DC10030148",38.9181156,-77.0687315,0.988652813210744
"236","PAST SALE",2017-10-16,"Condo/Co-op","1827 Florida Ave NW #103","Washington","DC",20009,330000,1,1,"Kalorama",576,NA,1925,2,573,304,"http://www.redfin.com/DC/Washington/1827-Florida-Ave-NW-20009/unit-103/home/10004390","MRIS","DC10055409",38.9163277,-77.0425938,0.386461688229302
"237","PAST SALE",2017-10-16,"Condo/Co-op","1545 18th St NW #904","Washington","DC",20036,395000,1,1,"Old City #2",631,NA,1900,2,626,615,"http://www.redfin.com/DC/Washington/1545-18th-St-NW-20036/unit-904/home/9862034","MRIS","DC10063113",38.910903,-77.0411095,0.204177486186274
"238","PAST SALE",2017-08-31,"Condo/Co-op","1737 P St NW #101","Washington","DC",20036,270000,1,1,"Old City #2",482,NA,1923,48,560,288,"http://www.redfin.com/DC/Washington/1737-P-St-NW-20036/unit-101/home/10185223","MRIS","DC9950876",38.9097727,-77.0402655,0.264272447350759
"239","PAST SALE",2017-09-11,"Condo/Co-op","2410 20th St NW #8","Washington","DC",20009,325000,1,1,"Kalorama",594,NA,1926,37,547,399,"http://www.redfin.com/DC/Washington/2410-20th-St-NW-20009/unit-8/home/10001327","MRIS","DC9937596",38.9211805,-77.0472158,0.467223014161094
"240","PAST SALE",2017-09-29,"Condo/Co-op","1526 17th St NW #101","Washington","DC",20036,379000,1,1,"Old City #2",650,NA,1916,19,583,547,"http://www.redfin.com/DC/Washington/1526-17th-St-NW-20036/unit-101/home/44581299","MRIS","DC10034915",38.9105936,-77.0388774,0.325552643453109
"241","PAST SALE",2017-10-04,"Condo/Co-op","3701 Connecticut Ave NW #605","Washington","DC",20008,240000,1,1,"Cleveland Park",600,NA,1951,14,400,473,"http://www.redfin.com/DC/Washington/3701-Connecticut-Ave-NW-20008/unit-605/home/9991108","MRIS","DC10048133",38.9382902,-77.0593436,0.159908587640247
"242","PAST SALE",NA,"Condo/Co-op","1545 18th St NW Unit 116","Washington","DC",20036,345000,1,1,"",631,NA,1900,NA,547,NA,"http://www.redfin.com/DC/Washington/1545-18th-St-NW-20036/unit-116/home/9861655","","",38.910903,-77.0411095,0.204177486186274
"243","PAST SALE",2017-09-18,"Condo/Co-op","1150 K St NW #703","Washington","DC",20005,442000,1,1,"Central",747,NA,2005,30,592,461,"http://www.redfin.com/DC/Washington/1150-K-St-NW-20005/unit-703/home/10347552","MRIS","DC10030134",38.9021883,-77.0277361,0.256356283798716
"244","PAST SALE",2017-10-12,"Condo/Co-op","3860 Rodman St NW Unit D226","Washington","DC",20016,338000,1,1,"Cleveland Park",654,NA,1942,6,517,329,"http://www.redfin.com/DC/Washington/3860-Rodman-St-NW-20016/unit-D226/home/143707960","MRIS","DC10049956",38.938845,-77.076768,0.662648374842895
"245","PAST SALE",NA,"Condo/Co-op","350 G St SW Apt N315","Washington","DC",20024,365000,1,1,"",670,NA,2004,NA,545,NA,"http://www.redfin.com/DC/Washington/350-G-St-SW-20024/unit-N315/home/10193816","","",38.8807664,-77.0165581,0.268504387226719
"246","PAST SALE",2017-08-14,"Condo/Co-op","1831 2nd St NE #305","Washington","DC",20002,297000,1,1,"Eckington",548,NA,1900,65,542,259,"http://www.redfin.com/DC/Washington/1831-2nd-St-NE-20002/unit-305/home/54583616","MRIS","DC10016029",38.9152183,-77.0031632,0.546583987438459
"247","PAST SALE",2017-08-16,"Condo/Co-op","520 N Street SW Unit S313","Washington","DC",20024,250777,1,1,"Sw Waterfront",540,NA,1966,63,464,532,"http://www.redfin.com/DC/Washington/520-N-St-SW-20024/unit-S313/home/142312121","MRIS","DC10003808",38.8743973,-77.0187172,0.212010877201364
"248","PAST SALE",NA,"Condo/Co-op","1831 2nd St NE Unit 409","Washington","DC",20002,279000,1,1,"",439,NA,1900,NA,636,NA,"http://www.redfin.com/DC/Washington/1831-2nd-St-NE-20002/unit-409/home/96402127","","",38.9152183,-77.0031632,0.546583987438459
"249","PAST SALE",NA,"Condo/Co-op","1831 2nd St NE Unit 406","Washington","DC",20002,284900,1,1,"",537,NA,1900,NA,531,NA,"http://www.redfin.com/DC/Washington/1831-2nd-St-NE-20002/unit-406/home/96402128","","",38.9152183,-77.0031632,0.546583987438459
"250","PAST SALE",NA,"Condo/Co-op","700 7th St SW Apt 509","Washington","DC",20024,315000,1,1,"",740,NA,1967,NA,426,NA,"http://www.redfin.com/DC/Washington/700-7th-St-SW-20024/unit-509/home/9880638","","",38.8802669,-77.0215353,0.368670303951762
"251","PAST SALE",2017-08-09,"Condo/Co-op","616 E St NW #509","Washington","DC",20004,442500,1,1,"Penn Quarter",737,NA,2004,70,600,437,"http://www.redfin.com/DC/Washington/616-E-St-NW-20004/unit-509/home/10342907","MRIS","DC9962281",38.8956235,-77.0210741,0.112451782078488
"252","PAST SALE",NA,"Condo/Co-op","555 Massachusetts Ave NW Apt 106","Washington","DC",20001,409000,1,1,"",625,NA,2005,NA,654,NA,"http://www.redfin.com/DC/Washington/555-Massachusetts-Ave-NW-20001/unit-106/home/10347760","","",38.9017583,-77.0194236,0.152867049794117
"253","PAST SALE",2017-08-16,"Condo/Co-op","2915 8th St SE #5201","Washington","DC",20032,138000,1,1,"Congress Heights",600,NA,1952,63,230,95,"http://www.redfin.com/DC/Washington/2915-8th-St-SE-20032/unit-5201/home/140115526","MRIS","DC9997535",38.845578,-76.9950257,0.376504774499264
"254","PAST SALE",2017-08-16,"Condo/Co-op","2725 39th St NW #503","Washington","DC",20007,364000,1,1,"Glover Park",743,NA,1959,63,490,542,"http://www.redfin.com/DC/Washington/2725-39th-St-NW-20007/unit-503/home/11747287","MRIS","DC9959078",38.925285,-77.0785607,1.29617628241116
"255","PAST SALE",2017-08-18,"Condo/Co-op","3900 14th St NW #508","Washington","DC",20011,357000,1,1,"Columbia Heights",644,NA,1931,61,554,374,"http://www.redfin.com/DC/Washington/3900-14th-St-NW-20011/unit-508/home/28497074","MRIS","DC10003412",38.9387185,-77.0335111,0.48795510820274
"256","PAST SALE",2017-08-22,"Condo/Co-op","2707 Adams Mill Rd NW #503","Washington","DC",20009,362000,1,1,"Adams Morgan/lanier Heights",650,NA,1927,57,557,380,"http://www.redfin.com/DC/Washington/2707-Adams-Mill-Rd-NW-20009/unit-503/home/21477577","MRIS","DC9998093",38.9243912,-77.0442999,0.499575420385985
"257","PAST SALE",NA,"Condo/Co-op","916 G St NW Apt 705","Washington","DC",20001,425000,1,1,"",593,NA,2002,NA,717,NA,"http://www.redfin.com/DC/Washington/916-G-St-NW-20001/unit-705/home/10189788","","",38.8980199,-77.0248535,0.226709665949278
"258","PAST SALE",2017-08-14,"Condo/Co-op","1441 Rhode Island Ave NW Unit M08","Washington","DC",20005,499000,1,1,"Old City #2",642,NA,2003,65,777,407,"http://www.redfin.com/DC/Washington/1441-Rhode-Island-Ave-NW-20005/unit-M08/home/21647979","MRIS","DC10003812",38.9085968,-77.0337573,0.490266475603726
"259","PAST SALE",2017-08-17,"Condo/Co-op","3028 Wisconsin Ave NW #205","Washington","DC",20016,269000,1,1,"Cleveland Park",466,NA,1930,62,577,326,"http://www.redfin.com/DC/Washington/3028-Wisconsin-Ave-NW-20016/unit-205/home/10190506","MRIS","DC9978193",38.9303796,-77.0733087,0.871983350596047
"260","PAST SALE",2017-08-14,"Condo/Co-op","1239 Vermont Ave NW #403","Washington","DC",20005,382500,1,1,"Logan Circle",644,NA,1964,65,594,594,"http://www.redfin.com/DC/Washington/1239-Vermont-Ave-NW-20005/unit-403/home/9872876","MRIS","DC9995694",38.9069933,-77.0307069,0.420168324419633
"261","PAST SALE",2017-08-30,"Condo/Co-op","4200 Cathedral Ave NW #902","Washington","DC",20016,220000,1,1,"Wesley Heights",720,NA,1957,49,306,623,"http://www.redfin.com/DC/Washington/4200-Cathedral-Ave-NW-20016/unit-902/home/9958210","MRIS","DC9975735",38.9296124,-77.0828221,1.29859350184068
"262","PAST SALE",2017-08-21,"Condo/Co-op","1 Scott Cir NW #206","Washington","DC",20036,256000,1,1,"Old City #2",518,NA,1891,58,494,502,"http://www.redfin.com/DC/Washington/1-Scott-Cir-NW-20036/unit-206/home/9868793","MRIS","DC9962556",38.9077561,-77.035982,0.380640634839547
"263","PAST SALE",2017-08-25,"Condo/Co-op","1316 New Hampshire Ave NW #305","Washington","DC",20036,369900,1,1,"Dupont Circle",515,NA,1918,54,718,284,"http://www.redfin.com/DC/Washington/1316-New-Hampshire-Ave-NW-20036/unit-305/home/9057854","MRIS","DC9980108",38.9078191,-77.0456381,0.226069743267919
"264","PAST SALE",NA,"Condo/Co-op","1011 M St NW Unit 305","Washington","DC",20001,213600,1,1,"",540,NA,2016,NA,396,NA,"http://www.redfin.com/DC/Washington/1011-M-St-NW-20001/unit-305/home/113745565","","",38.905853,-77.0263797,0.239926851620055
"265","PAST SALE",2017-08-25,"Condo/Co-op","1401 R St NW #408","Washington","DC",20009,550500,1,1,"Old City #2",715,NA,1920,54,770,292,"http://www.redfin.com/DC/Washington/1401-R-St-NW-20009/unit-408/home/55187249","MRIS","DC10010460",38.9127883,-77.0322335,0.33940942607839
"266","PAST SALE",2017-08-29,"Condo/Co-op","1441 Euclid St NW #301","Washington","DC",20009,315000,1,1,"Columbia Heights",551,NA,1939,50,572,408,"http://www.redfin.com/DC/Washington/1441-Euclid-St-NW-20009/unit-301/home/10345110","MRIS","DC9964067",38.9237967,-77.033627,0.334546560547568
"267","PAST SALE",2017-08-26,"Condo/Co-op","1752 Corcoran St NW Unit 3B","Washington","DC",20009,515000,1,1,"Old City #2",671,NA,1885,53,768,613,"http://www.redfin.com/DC/Washington/1752-Corcoran-St-NW-20009/unit-3B/home/9860483","MRIS","DC10015212",38.9117118,-77.0404045,0.246382696793414
"268","PAST SALE",2017-10-02,"Condo/Co-op","1701 16th St NW #803","Washington","DC",20009,490000,1,1,"Old City #2",667,NA,1920,16,735,580,"http://www.redfin.com/DC/Washington/1701-16th-St-NW-20009/unit-803/home/40194668","MRIS","DC10028848",38.9130203,-77.036064,0.470198635361924
"269","PAST SALE",2017-09-27,"Condo/Co-op","2032 15th St NW #7","Washington","DC",20009,360000,1,1,"Old City #2",540,NA,1915,21,667,168,"http://www.redfin.com/DC/Washington/2032-15th-St-NW-20009/unit-7/home/9867557","MRIS","DC9998556",38.9179532,-77.034754,0.31845636263778
"270","PAST SALE",2017-10-16,"Condo/Co-op","326 8th St NE #202","Washington","DC",20002,410000,1,1,"Capitol Hill",604,NA,2003,2,679,275,"http://www.redfin.com/DC/Washington/326-8th-St-NE-20002/unit-202/home/10190013","MRIS","DC10055339",38.8942405,-76.9953164,0.67849993469053
"271","PAST SALE",2017-09-29,"Condo/Co-op","420 16th St SE #103","Washington","DC",20003,322100,1,1,"Old City #1",600,NA,1947,19,537,271,"http://www.redfin.com/DC/Washington/420-16th-St-SE-20003/unit-103/home/28583397","MRIS","DC10049062",38.883393,-76.9818206,0.247499198812184
"272","PAST SALE",2017-10-11,"Condo/Co-op","1820 Clydesdale Pl NW #407","Washington","DC",20009,295000,1,1,"Adams Morgan",592,NA,1927,7,498,416,"http://www.redfin.com/DC/Washington/1820-Clydesdale-Pl-NW-20009/unit-407/home/17360204","MRIS","DC10039797",38.9251821,-77.0440536,0.503867605434239
"273","PAST SALE",2017-10-12,"Condo/Co-op","1365 Kennedy St NW #307","Washington","DC",20011,211000,1,1,"16th Street Heights",625,NA,1936,6,338,399,"http://www.redfin.com/DC/Washington/1365-Kennedy-St-NW-20011/unit-307/home/44613583","MRIS","DC10035671",38.956451,-77.03263,1.39279618999606
"274","PAST SALE",2017-10-13,"Condo/Co-op","1451 Park Rd NW #308","Washington","DC",20010,305000,1,1,"Columbia Heights",578,NA,1930,5,528,296,"http://www.redfin.com/DC/Washington/1451-Park-Rd-NW-20010/unit-308/home/55188123","MRIS","DC10010858",38.9310998,-77.0343103,0.187721326931857
"275","PAST SALE",2017-10-11,"Condo/Co-op","1367 K St SE #301","Washington","DC",20003,293000,1,1,"Old City #1",503,NA,1946,7,583,331,"http://www.redfin.com/DC/Washington/1367-K-St-SE-20003/unit-301/home/9915662","MRIS","DC10056773",38.8782098,-76.9859372,0.212348653530446
"276","PAST SALE",2017-10-02,"Condo/Co-op","3010 Wisconsin Ave NW #407","Washington","DC",20016,315000,1,1,"Cleveland Park",597,NA,1930,16,528,409,"http://www.redfin.com/DC/Washington/3010-Wisconsin-Ave-NW-20016/unit-407/home/10190331","MRIS","DC10035812",38.9296711,-77.0735058,0.904228958018794
"277","PAST SALE",2017-10-16,"Condo/Co-op","1423 R St NW #302","Washington","DC",20009,502500,1,1,"Logan Circle",710,NA,1925,2,708,245,"http://www.redfin.com/DC/Washington/1423-R-St-NW-20009/unit-302/home/9869964","MRIS","DC10050072",38.9129224,-77.0330916,0.358134679553235
"278","PAST SALE",2017-08-18,"Condo/Co-op","3881 Newark St NW Unit C477","Washington","DC",20016,365000,1,1,"Cleveland Park",682,NA,1942,61,535,344,"http://www.redfin.com/DC/Washington/3881-Newark-St-NW-20016/unit-C477/home/142560768","MRIS","DC10005818",38.9357282,-77.0767264,0.860238876898665
"279","PAST SALE",NA,"Condo/Co-op","2915 8th St SE #201","Washington","DC",20032,138000,1,1,"",533,NA,1952,NA,259,NA,"http://www.redfin.com/DC/Washington/2915-8th-St-SE-20032/unit-201/home/21646287","","",38.845578,-76.9950257,0.376504774499264
"280","PAST SALE",NA,"Condo/Co-op","1011 M St NW Unit 205","Washington","DC",20001,213600,1,1,"",540,NA,2016,NA,396,NA,"http://www.redfin.com/DC/Washington/1011-M-St-NW-20001/unit-205/home/113745561","","",38.905853,-77.0263797,0.239926851620055
"281","PAST SALE",2017-09-07,"Condo/Co-op","1250 4th St SW Unit W810","Washington","DC",20024,305165,1,1,"Rla (sw)",570,NA,1967,41,535,517,"http://www.redfin.com/DC/Washington/1250-4th-St-SW-20024/unit-W810/home/9886230","MRIS","DC10027216",38.8751976,-77.0172765,0.123875203595128
"282","PAST SALE",2017-08-29,"Condo/Co-op","1308 Clifton St NW #409","Washington","DC",20009,399500,1,1,"Columbia Heights",696,NA,1912,50,574,345,"http://www.redfin.com/DC/Washington/1308-Clifton-St-NW-20009/unit-409/home/10191008","MRIS","DC10016293",38.9220978,-77.0302179,0.35989406593394
"283","PAST SALE",NA,"Condo/Co-op","1801 16th St NW Apt 209","Washington","DC",20009,594500,1,1,"",730,NA,1917,NA,814,NA,"http://www.redfin.com/DC/Washington/1801-16th-St-NW-20009/unit-209/home/96401468","","",38.9143561,-77.0363653,0.437689774287637
"284","PAST SALE",2017-09-05,"Condo/Co-op","3025 Ontario Rd NW #105","Washington","DC",20009,314000,1,1,"Lanier Heights/adams Morgan",750,NA,1949,43,419,458,"http://www.redfin.com/DC/Washington/3025-Ontario-Rd-NW-20009/unit-105/home/119139131","MRIS","DC9967169",38.9260638,-77.0439265,0.507965889819181
"285","PAST SALE",2017-09-07,"Condo/Co-op","2440 16th St NW #412","Washington","DC",20009,365000,1,1,"Mount Pleasant",650,NA,1929,41,562,481,"http://www.redfin.com/DC/Washington/2440-16th-St-NW-20009/unit-412/home/10005795","MRIS","DC10029347",38.92196,-77.0371949,0.51340713371567
"286","PAST SALE",NA,"Condo/Co-op","4840 MacArthur Blvd NW Apt 606","Washington","DC",20007,264900,1,1,"",463,NA,1959,NA,572,NA,"http://www.redfin.com/DC/Washington/4840-MacArthur-Blvd-NW-20007/unit-606/home/12531173","","",38.9170973,-77.0968538,1.88180124430468
"287","PAST SALE",2017-09-11,"Condo/Co-op","437 New York Ave NW #405","Washington","DC",20001,476000,1,1,"Old City #2",731,NA,2008,37,651,520,"http://www.redfin.com/DC/Washington/437-New-York-Ave-NW-20001/unit-405/home/22049216","MRIS","DC9951605",38.9050314,-77.0168353,0.277418706770774
"288","PAST SALE",NA,"Condo/Co-op","911 2nd St NE Unit 306","Washington","DC",20002,449900,NA,NA,"",NA,NA,NA,NA,NA,NA,"http://www.redfin.com/DC/Washington/911-2nd-St-NE-20002/unit-306/home/142938363","","",38.9017741,-77.0033116,0.31293868660199
"289","PAST SALE",2017-08-30,"Condo/Co-op","30 17th St SE Unit B","Washington","DC",20003,335000,1,1,"Capitol Hill",642,NA,1954,49,522,260,"http://www.redfin.com/DC/Washington/30-17th-St-SE-20003/unit-B/home/12531862","MRIS","DC10008784",38.8890422,-76.9805084,0.279353422719907
"290","PAST SALE",2017-09-11,"Condo/Co-op","1500 Pennsylvania Ave SE #310","Washington","DC",20003,460000,1,1,"Old City #1",NA,NA,2017,37,NA,345,"http://www.redfin.com/DC/Washington/1500-Pennsylvania-Ave-SE-20003/unit-310/home/113745697","MRIS","DC9973128",38.879821,-76.983278,0.156255425654519
"291","PAST SALE",2017-09-30,"Condo/Co-op","3821 V St SE #101","Washington","DC",20020,80000,1,1,"Hill Crest",580,NA,1940,18,138,286,"http://www.redfin.com/DC/Washington/3821-V-St-SE-20020/unit-101/home/10154699","MRIS","DC9891850",38.8641282,-76.9507527,0.933137395468154
"292","PAST SALE",2017-10-06,"Condo/Co-op","1851 Columbia Rd NW #705","Washington","DC",20009,414000,1,1,"Kalorama",654,NA,1902,12,633,453,"http://www.redfin.com/DC/Washington/1851-Columbia-Rd-NW-20009/unit-705/home/10002909","MRIS","DC9985308",38.9209465,-77.0440781,0.607863787369934
"293","PAST SALE",2017-09-29,"Condo/Co-op","1401 17th St NW #310","Washington","DC",20036,425000,1,1,"Old City #2",549,NA,1987,19,774,400,"http://www.redfin.com/DC/Washington/1401-17th-St-NW-20036/unit-310/home/9866718","MRIS","DC10018433",38.9089475,-77.0380411,0.396397739241142
"294","PAST SALE",NA,"Condo/Co-op","3819 V St SE #3819","Washington","DC",20020,82000,1,1,"",750,NA,1940,NA,109,NA,"http://www.redfin.com/DC/Washington/3819-V-St-SE-20020/unit-3819/home/10154695","","",38.8641528,-76.9518663,0.917133311034805
"295","PAST SALE",NA,"Condo/Co-op","3314 Mount Pleasant St NW Apt 36","Washington","DC",20010,347500,1,1,"",590,NA,1922,NA,589,NA,"http://www.redfin.com/DC/Washington/3314-Mount-Pleasant-St-NW-20010/unit-36/home/22653228","","",38.9330101,-77.0402446,0.497336619446621
"296","PAST SALE",NA,"Condo/Co-op","939 Longfellow St NW Apt 3","Washington","DC",20011,57500,1,1,"",682,NA,1940,NA,84,NA,"http://www.redfin.com/DC/Washington/939-Longfellow-St-NW-20011/unit-3/home/10345471","","",38.9576181,-77.0272529,1.33305817010963
"297","PAST SALE",2017-08-18,"Condo/Co-op","811 4th St NW #514","Washington","DC",20001,447000,1,1,"Old City #2",703,NA,2007,61,636,482,"http://www.redfin.com/DC/Washington/811-4th-St-NW-20001/unit-514/home/12532249","MRIS","DC10001822",38.9009511,-77.0157111,0.283840984970829
"298","PAST SALE",2017-08-21,"Condo/Co-op","777 7th St NW #919","Washington","DC",20001,385000,1,1,"Central",684,NA,2005,58,563,605,"http://www.redfin.com/DC/Washington/777-7th-St-NW-20001/unit-919/home/10193235","MRIS","DC9977359",38.899494,-77.0217858,0.0586383001329145
"299","PAST SALE",2017-08-18,"Condo/Co-op","1301 Longfellow St NW #207","Washington","DC",20011,214000,1,1,"16th Street Heights",578,NA,1935,61,370,299,"http://www.redfin.com/DC/Washington/1301-Longfellow-St-NW-20011/unit-207/home/21644497","MRIS","DC9965692",38.9575334,-77.0300657,1.40292906259802
"300","PAST SALE",2017-08-28,"Condo/Co-op","1727 R St NW #202","Washington","DC",20009,502000,1,1,"Old City #2",711,NA,1908,51,706,394,"http://www.redfin.com/DC/Washington/1727-R-St-NW-20009/unit-202/home/9860289","MRIS","DC10021355",38.9128363,-77.0395419,0.314069060045778
"301","PAST SALE",2017-09-29,"Condo/Co-op","4200 Cathedral Ave NW #1115","Washington","DC",20016,228000,1,1,"Wesley Heights",725,NA,1957,19,314,664,"http://www.redfin.com/DC/Washington/4200-Cathedral-Ave-NW-20016/unit-1115/home/9958327","MRIS","DC10034390",38.9296124,-77.0828221,1.29859350184068
"302","PAST SALE",2017-07-25,"Condo/Co-op","1831 2nd St NE #406","Washington","DC",20002,284900,1,1,"Eckington",537,NA,1900,85,531,261,"http://www.redfin.com/DC/Washington/1831-2nd-St-NE-20002/unit-406/home/52664271","MRIS","DC9973623",38.9152183,-77.0031632,0.546583987438459
"303","PAST SALE",2017-07-28,"Condo/Co-op","315 Evarts St NE #109","Washington","DC",20002,265000,1,1,"Brookland",590,NA,1936,82,449,283,"http://www.redfin.com/DC/Washington/315-Evarts-St-NE-20002/unit-109/home/21645378","MRIS","DC9980012",38.924196,-77.0013201,0.458506315161696
"304","PAST SALE",2017-08-16,"Condo/Co-op","420 Oklahoma Ave NE #102","Washington","DC",20002,282699,1,1,"Old City #1",630,NA,1944,63,449,269,"http://www.redfin.com/DC/Washington/420-Oklahoma-Ave-NE-20002/unit-102/home/10350162","MRIS","DC10000808",38.8957491,-76.9719959,0.527947646417463
"305","PAST SALE",2017-09-22,"Condo/Co-op","3052 Pineview Ct NE #3052","Washington","DC",20018,121000,1,1,"Fort Lincoln",584,NA,1978,26,207,132,"http://www.redfin.com/DC/Washington/3052-Pineview-Ct-NE-20018/unit-3052/home/10107400","MRIS","DC9823127",38.9288792,-76.9572737,1.89195658215788
"306","PAST SALE",2017-09-28,"Condo/Co-op","219 T St NE Unit T2","Washington","DC",20002,163000,1,1,"Eckington",425,NA,1913,20,384,169,"http://www.redfin.com/DC/Washington/219-T-St-NE-20002/unit-T2/home/28497538","MRIS","DC10014866",38.915307,-77.002685,0.553645250807205
"307","PAST SALE",2017-07-27,"Condo/Co-op","350 G St SW Unit N315","Washington","DC",20024,365000,1,1,"Potomac Place",670,NA,2005,83,545,321,"http://www.redfin.com/DC/Washington/350-G-St-SW-20024/unit-N315/home/113615820","MRIS","DC9901946",38.8807664,-77.0165581,0.268504387226719
"308","PAST SALE",2017-08-14,"Condo/Co-op","2116 Suitland Ter SE #201","Washington","DC",20020,74000,1,1,"Hill Crest",636,NA,1940,65,116,258,"http://www.redfin.com/DC/Washington/2116-Suitland-Ter-SE-20020/unit-201/home/114026297","MRIS","DC9959178",38.8628183,-76.9493839,0.876874191869674
"309","PAST SALE",2017-08-18,"Condo/Co-op","721 Brandywine St SE #102","Washington","DC",20032,100000,1,1,"Congress Heights",571,NA,1953,61,175,227,"http://www.redfin.com/DC/Washington/721-Brandywine-St-SE-20032/unit-102/home/113256505","MRIS","DC9877953",38.8299771,-76.9950602,0.761267973847169
"310","PAST SALE",2017-07-24,"Condo/Co-op","2139 Suitland Ter SE #102","Washington","DC",20020,61500,1,1,"Hill Crest",636,NA,1940,86,97,278,"http://www.redfin.com/DC/Washington/2139-Suitland-Ter-SE-20020/unit-102/home/112999795","MRIS","DC9718509",38.8622749,-76.9495682,0.838688596534235
"311","PAST SALE",2017-08-30,"Condo/Co-op","355 I St SW #214","Washington","DC",20024,380000,1,1,"Rla (sw)",672,NA,2005,49,565,336,"http://www.redfin.com/DC/Washington/355-I-St-SW-20024/unit-214/home/143005753","MRIS","DC10015153",38.8798038,-77.0165648,0.206653194849378
"312","PAST SALE",2017-08-31,"Condo/Co-op","226 3rd St NE Unit A","Washington","DC",20002,408900,1,1,"Capitol Hill",554,NA,1971,48,738,297,"http://www.redfin.com/DC/Washington/226-3rd-St-NE-20002/unit-A/home/143077280","MRIS","DC10021514",38.893221,-77.0020396,0.430348919800763
"313","PAST SALE",2017-09-29,"Condo/Co-op","2711 Q St SE #203","Washington","DC",20020,1490,1,1,"Hill Crest",700,NA,1950,19,2,900,"http://www.redfin.com/DC/Washington/2711-Q-St-SE-20020/unit-203/home/102651540","MRIS","DC9896992",38.8705138,-76.9683584,1.18577894979211
"314","PAST SALE",NA,"Condo/Co-op","1500 Pennsylvania Ave SE Apt 205","Washington","DC",20003,219100,1,1,"",590,NA,2016,NA,371,NA,"http://www.redfin.com/DC/Washington/1500-Pennsylvania-Ave-SE-20003/unit-205/home/113745691","","",38.879821,-76.983278,0.156255425654519
"315","PAST SALE",2017-07-20,"Condo/Co-op","730 24th St NW #618","Washington","DC",20037,300000,1,1,"Foggy Bottom",730,NA,1961,90,411,671,"http://www.redfin.com/DC/Washington/730-24th-St-NW-20037/unit-618/home/134313162","MRIS","DC9989454",38.8991084,-77.0517335,0.156638046207995
"316","PAST SALE",2017-07-28,"Condo/Co-op","1701 16th St NW #152","Washington","DC",20009,332000,1,1,"Dupont Circle",600,NA,1920,82,553,909,"http://www.redfin.com/DC/Washington/1701-16th-St-NW-20009/unit-152/home/62143691","MRIS","DC9909433",38.9130203,-77.036064,0.470198635361924
"317","PAST SALE",2017-07-28,"Condo/Co-op","1260 21st St NW #202","Washington","DC",20036,342500,1,1,"Dupont",475,NA,1966,82,721,663,"http://www.redfin.com/DC/Washington/1260-21st-St-NW-20036/unit-202/home/9052639","MRIS","DC9945247",38.9067387,-77.0469768,0.317614289074895
"318","PAST SALE",2017-08-01,"Condo/Co-op","730 24th St NW #211","Washington","DC",20037,285000,1,1,"Foggy Bottom",750,NA,1961,78,380,654,"http://www.redfin.com/DC/Washington/730-24th-St-NW-20037/unit-211/home/21999424","MRIS","DC9957783",38.8991084,-77.0517335,0.156638046207995
"319","PAST SALE",2017-07-21,"Condo/Co-op","1851 Columbia Rd NW #305","Washington","DC",20009,395000,1,1,"Kalorama",703,NA,1902,89,562,434,"http://www.redfin.com/DC/Washington/1851-Columbia-Rd-NW-20009/unit-305/home/10002828","MRIS","DC9963301",38.9209465,-77.0440781,0.607863787369934
"320","PAST SALE",2017-07-28,"Condo/Co-op","525 Water St SW #407","Washington","DC",20024,389900,1,1,"Southwest",510,NA,2016,82,765,381,"http://www.redfin.com/DC/Washington/525-Water-St-SW-20024/unit-407/home/113745453","MRIS","DC9949836",38.876059,-77.0202399,0.218107956033102
"321","PAST SALE",NA,"Condo/Co-op","1011 M St NW Unit 505","Washington","DC",20001,213600,1,1,"",540,NA,2016,NA,396,NA,"http://www.redfin.com/DC/Washington/1011-M-St-NW-20001/unit-505/home/113745574","","",38.905853,-77.0263797,0.239926851620055
"322","PAST SALE",2017-08-21,"Condo/Co-op","1915 16th St NW #501","Washington","DC",20009,365000,1,1,"Dupont",750,NA,1923,58,487,455,"http://www.redfin.com/DC/Washington/1915-16th-St-NW-20009/unit-501/home/21886725","MRIS","DC10000756",38.9160766,-77.0360955,0.388686414093623
"323","PAST SALE",2017-08-21,"Condo/Co-op","950 25th St NW Unit 227-N","Washington","DC",20037,255000,1,1,"Foggy Bottom",600,NA,1966,58,425,1073,"http://www.redfin.com/DC/Washington/950-25th-St-NW-20037/unit-227N/home/108284813","MRIS","DC9933137",38.901974,-77.0537004,0.17988162892486
"324","PAST SALE",2017-08-24,"Condo/Co-op","950 25th St NW Unit 502-N","Washington","DC",20037,245000,1,1,"Foggy Bottom",651,NA,1966,55,376,1223,"http://www.redfin.com/DC/Washington/950-25th-St-NW-20037/unit-502N/home/143145897","MRIS","DC10022109",38.901974,-77.0537004,0.17988162892486
"325","PAST SALE",2017-09-05,"Condo/Co-op","1436 W St NW #105","Washington","DC",20009,138137,1,1,"Old City #2",600,NA,1908,43,230,1076,"http://www.redfin.com/DC/Washington/1436-W-St-NW-20009/unit-105/home/28474442","MRIS","DC9923274",38.9188869,-77.0334795,0.27607073923923
"326","PAST SALE",2017-09-06,"Condo/Co-op","2311 Connecticut Ave NW #403","Washington","DC",20008,410000,1,1,"Kalorama",722,NA,1911,42,568,607,"http://www.redfin.com/DC/Washington/2311-Connecticut-Ave-NW-20008/unit-403/home/10000790","MRIS","DC10022291",38.918839,-77.0486829,0.552591807582213
"327","PAST SALE",2017-09-29,"Condo/Co-op","1621 T St NW #707","Washington","DC",20009,426500,1,1,"Dupont Circle",507,NA,1925,19,841,218,"http://www.redfin.com/DC/Washington/1621-T-St-NW-20009/unit-707/home/9865430","MRIS","DC9982041",38.9158099,-77.0380322,0.494532175271132
"328","PAST SALE",2017-09-20,"Condo/Co-op","801 Pennsylvania Ave NW #1206","Washington","DC",20004,380000,1,1,"Central",505,NA,1990,28,752,709,"http://www.redfin.com/DC/Washington/801-Pennsylvania-Ave-NW-20004/unit-1206/home/9878475","MRIS","DC9963510",38.894388,-77.0235065,0.0562758527278757
"329","PAST SALE",2017-09-29,"Condo/Co-op","1718 P St NW #704","Washington","DC",20036,415000,1,1,"Dupont Circle",745,NA,1968,19,557,762,"http://www.redfin.com/DC/Washington/1718-P-St-NW-20036/unit-704/home/9862733","MRIS","DC10039441",38.9093943,-77.0392914,0.32249327489336
"330","PAST SALE",2017-09-25,"Condo/Co-op","2725 Connecticut Ave NW #107","Washington","DC",20008,390000,1,1,"Garfield",747,NA,1989,23,522,574,"http://www.redfin.com/DC/Washington/2725-Connecticut-Ave-NW-20008/unit-107/home/9989430","MRIS","DC9975245",38.9263787,-77.0527254,0.0454756772799566
"331","PAST SALE",2017-09-29,"Condo/Co-op","2022 Flagler Pl NW Unit F202","Washington","DC",20001,424000,1,1,"Ledroit Park",693,NA,2006,19,612,329,"http://www.redfin.com/DC/Washington/2022-Flagler-Pl-NW-20001/unit-F202/home/12530627","MRIS","DC10008822",38.9175624,-77.0137556,0.580310172835049
"332","PAST SALE",2017-09-29,"Condo/Co-op","400 Evarts St NE #304","Washington","DC",20017,285000,1,1,"Brookland",619,NA,1930,19,460,228,"http://www.redfin.com/DC/Washington/400-Evarts-St-NE-20017/unit-304/home/12530335","MRIS","DC10044621",38.9246955,-77.0002338,0.41693656400706
"333","PAST SALE",2017-09-12,"Condo/Co-op","5201-B Wisconsin Ave NW #313","Washington","DC",20015,365000,1,1,"Chevy Chase",650,NA,2010,36,562,371,"http://www.redfin.com/DC/Washington/5201-Wisconsin-Ave-20015/unit-313/home/40501753","MRIS","DC10032978",38.9572488,-77.0836308,0.272955435009867
"334","PAST SALE",2017-09-22,"Condo/Co-op","2320 Wisconsin Ave NW #402","Washington","DC",20007,420000,1,1,"Glover Park",725,NA,1984,26,579,490,"http://www.redfin.com/DC/Washington/2320-Wisconsin-Ave-NW-20007/unit-402/home/9933809","MRIS","DC10032121",38.9204559,-77.072113,1.07808244303779
"335","PAST SALE",2017-09-18,"Condo/Co-op","3925 Davis Pl NW #104","Washington","DC",20007,289000,1,1,"Glover Park",648,NA,1940,30,446,398,"http://www.redfin.com/DC/Washington/3925-Davis-Pl-NW-20007/unit-104/home/10186739","MRIS","DC10002148",38.9239186,-77.07831,1.3419562063623
"336","PAST SALE",2017-07-24,"Condo/Co-op","1705 Lanier Pl NW #106","Washington","DC",20009,319000,1,1,"Mount Pleasant",650,NA,1925,86,491,367,"http://www.redfin.com/DC/Washington/1705-Lanier-Pl-NW-20009/unit-106/home/21908746","MRIS","DC9961039",38.9262405,-77.0398412,0.405694981993354
"337","PAST SALE",2017-07-27,"Condo/Co-op","1401 Church St NW #317","Washington","DC",20005,565000,1,1,"Logan",689,NA,2005,83,820,387,"http://www.redfin.com/DC/Washington/1401-Church-St-NW-20005/unit-317/home/10192013","MRIS","DC9997951",38.9105771,-77.03286,0.490315729197573
"338","PAST SALE",2017-08-14,"Condo/Co-op","3314 Mount Pleasant St NW #45","Washington","DC",20010,320000,1,1,"Mount Pleasant",550,NA,1922,65,582,253,"http://www.redfin.com/DC/Washington/3314-Mount-Pleasant-St-NW-20010/unit-000045/home/11747669","MRIS","DC9947028",38.9330101,-77.0402446,0.497336619446621
"339","PAST SALE",2017-08-18,"Condo/Co-op","2801 Adams Mill Rd NW #103","Washington","DC",20009,295000,1,1,"Adams Morgan",600,NA,1926,61,492,453,"http://www.redfin.com/DC/Washington/2801-Adams-Mill-Rd-NW-20009/unit-103/home/17366693","MRIS","DC9964647",38.9255962,-77.0442366,0.491824161024721
"340","PAST SALE",NA,"Condo/Co-op","610 Irving St NW Apt 303","Washington","DC",20010,336500,1,1,"",567,NA,1906,NA,593,NA,"http://www.redfin.com/DC/Washington/610-Irving-St-NW-20010/unit-303/home/28497601","","",38.9288644,-77.0214009,0.608869280448658
"341","PAST SALE",2017-08-18,"Condo/Co-op","3902 14th St NW #517","Washington","DC",20011,335400,1,1,"Columbia Heights",678,NA,1964,61,495,392,"http://www.redfin.com/DC/Washington/3902-14th-St-NW-20011/unit-517/home/28497442","MRIS","DC9978948",38.9389264,-77.0334331,0.486960683648812
"342","PAST SALE",NA,"Condo/Co-op","640 Buchanan St NW Apt 202","Washington","DC",20011,206000,1,1,"",599,NA,1925,NA,344,NA,"http://www.redfin.com/DC/Washington/640-Buchanan-St-NW-20011/unit-202/home/10058268","","",38.9460736,-77.0215067,0.629554085044548
"343","PAST SALE",2017-09-15,"Condo/Co-op","1727 Massachusetts Ave NW #518","Washington","DC",20036,221000,1,1,"Dupont",420,NA,1965,33,526,363,"http://www.redfin.com/DC/Washington/1727-Massachusetts-Ave-NW-20036/unit-518/home/9863344","MRIS","DC10039427",38.908854,-77.0398483,0.310955613956105
"344","PAST SALE",2017-09-22,"Condo/Co-op","1260 21st St NW #906","Washington","DC",20036,292000,1,1,"Dupont",506,NA,1966,26,577,645,"http://www.redfin.com/DC/Washington/1260-21st-St-NW-20036/unit-906/home/9052421","MRIS","DC9997797",38.9067387,-77.0469768,0.317614289074895
"345","PAST SALE",NA,"Condo/Co-op","1260 21st St NW Apt 103","Washington","DC",20036,301000,1,1,"",478,NA,1966,NA,630,NA,"http://www.redfin.com/DC/Washington/1260-21st-St-NW-20036/unit-103/home/9052303","","",38.9067387,-77.0469768,0.317614289074895
"346","PAST SALE",2017-09-21,"Condo/Co-op","3324 18th St NW #11","Washington","DC",20010,380000,1,1,"Mount Pleasant",561,NA,1909,27,677,236,"http://www.redfin.com/DC/Washington/3324-18th-St-NW-20010/unit-11/home/55187912","MRIS","DC10041153",38.9330681,-77.0416139,0.559593867018028
"347","PAST SALE",NA,"Condo/Co-op","1308 21st St NW Apt 202","Washington","DC",20036,212000,1,1,"",461,NA,1925,NA,460,NA,"http://www.redfin.com/DC/Washington/1308-21st-St-NW-20036/unit-202/home/9052163","","",38.9076009,-77.0467923,0.258562624555004
"348","PAST SALE",2017-09-26,"Condo/Co-op","1833 S St NW #23","Washington","DC",20009,369000,1,1,"Old City #2",515,NA,1916,22,717,309,"http://www.redfin.com/DC/Washington/1833-S-St-NW-20009/unit-23/home/10175657","MRIS","DC10028004",38.9143475,-77.04277,0.256099036754141
"349","PAST SALE",2017-09-27,"Condo/Co-op","700 Jefferson St NW #303","Washington","DC",20011,225950,1,1,"Petworth",569,NA,1952,21,397,282,"http://www.redfin.com/DC/Washington/700-Jefferson-St-NW-20011/unit-303/home/11745322","MRIS","DC9984912",38.9549926,-77.0224831,1.22912044364879
"350","PAST SALE",2017-09-29,"Condo/Co-op","1830 17th St NW #607","Washington","DC",20009,564000,1,1,"Dupont",700,NA,1901,19,806,330,"http://www.redfin.com/DC/Washington/1830-17th-St-NW-20009/unit-607/home/9859067","MRIS","DC10063824",38.915249,-77.0385369,0.449623952150206
"351","PAST SALE",2017-10-04,"Condo/Co-op","939 Longfellow St NW #205","Washington","DC",20011,238000,1,1,"Petworth",682,NA,1940,14,349,364,"http://www.redfin.com/DC/Washington/939-Longfellow-St-NW-20011/unit-205/home/10345502","MRIS","DC9983338",38.9576182,-77.0272529,1.33305177563145
"352","PAST SALE",2017-10-06,"Condo/Co-op","2655 41st St NW #101","Washington","DC",20007,260000,1,1,"Glover Park",578,NA,1939,12,450,383,"http://www.redfin.com/DC/Washington/2655-41st-St-NW-20007/unit-101/home/143224694","MRIS","DC10050929",38.9244925,-77.0802668,1.40285352890126
"353","PAST SALE",2017-10-06,"Condo/Co-op","730 24th St NW #305","Washington","DC",20037,292500,1,1,"Foggy Bottom",730,NA,1961,12,401,665,"http://www.redfin.com/DC/Washington/730-24th-St-NW-20037/unit-305/home/55016641","MRIS","DC9981755",38.8991084,-77.0517335,0.156638046207995
"354","PAST SALE",2017-10-06,"Condo/Co-op","4100 Cathedral Ave NW #819","Washington","DC",20016,312000,1,1,"Observatory Circle",735,NA,1966,12,424,641,"http://www.redfin.com/DC/Washington/4100-Cathedral-Ave-NW-20016/unit-819/home/9963817","MRIS","DC10057843",38.9298715,-77.0802874,1.23116563228822
"355","PAST SALE",2017-10-06,"Condo/Co-op","210 Oakwood St SE #210","Washington","DC",20032,201000,1,1,"Congress Heights",650,NA,1947,12,309,300,"http://www.redfin.com/DC/Washington/210-Oakwood-St-SE-20032/unit-210/home/12529856","MRIS","DC9928394",38.848067,-77.0049972,0.936822478673803
"356","PAST SALE",NA,"Condo/Co-op","1435 4th St SW Apt B515","Washington","DC",20024,240000,1,1,"",726,NA,1965,NA,331,NA,"http://www.redfin.com/DC/Washington/1435-4th-St-SW-20024/unit-B515/home/9882964","","",38.872241,-77.017894,0.328202064158227
"357","PAST SALE",NA,"Condo/Co-op","1457 Park Rd NW Apt 102","Washington","DC",20010,297000,1,1,"",738,NA,1928,NA,402,NA,"http://www.redfin.com/DC/Washington/1457-Park-Rd-NW-20010/unit-102/home/22653504","","",38.931238,-77.0346133,0.203224208979057
